[
    {
      "id": 1,
      "institutionName": "전라북도 익산시청",
      "streetAddress": "전라북도 익산시 동서로51길 57(영등동)",
      "lotAddress": "전라북도 익산시 동초교 정문 (영등동 155)",
      "purpose": "어린이보호",
      "cameraNum": 1,
      "pixel": 200,
      "storageDay": 30,
      "installationDate": "2010년 11월",
      "managementNum": "063-859-5406",
      "latitude": 35.957903,
      "longitude": 126.977763,
      "date": "2016-09-13"
    },
    {
      "id": 2,
      "institutionName": "전라북도 익산시청",
      "streetAddress": "전라북도 익산시 동서로51길 57(영등동)",
      "lotAddress": "전라북도 익산시 동초교 정문 (영등동 155)",
      "purpose": "어린이보호",
      "cameraNum": 3,
      "pixel": 200,
      "storageDay": 30,
      "installationDate": "2010년 11월",
      "managementNum": "063-859-5406",
      "latitude": 35.957903,
      "longitude": 126.977763,
      "date": "2016-09-13"
    },
    {
      "id": 3,
      "institutionName": "전라북도 익산시청",
      "streetAddress": "전라북도 익산시 동서로51길 57(영등동)",
      "lotAddress": "전라북도 익산시 동초교 후문 (영등동 155)",
      "purpose": "어린이보호",
      "cameraNum": 1,
      "pixel": 200,
      "storageDay": 30,
      "installationDate": "2010년 11월",
      "managementNum": "063-859-5406",
      "latitude": 35.957903,
      "longitude": 126.977772,
      "date": "2016-09-13"
    },
    {
      "id": 4,
      "institutionName": "전라북도 익산시청",
      "streetAddress": "전라북도 익산시 동서로51길 57(영등동)",
      "lotAddress": "전라북도 익산시 동초교 후문 (영등동 155)",
      "purpose": "어린이보호",
      "cameraNum": 2,
      "pixel": 200,
      "storageDay": 30,
      "installationDate": "2010년 11월",
      "managementNum": "063-859-5406",
      "latitude": 35.957903,
      "longitude": 126.977772,
      "date": "2016-09-13"
    },
    {
      "id": 5,
      "institutionName": "전라북도 익산시청",
      "streetAddress": "전라북도 익산시 무왕로17길 47(영등동)",
      "lotAddress": "전라북도 익산시 마한초교 정문(영등동 817)",
      "purpose": "어린이보호",
      "cameraNum": 1,
      "pixel": 200,
      "storageDay": 30,
      "installationDate": "2010년 11월",
      "managementNum": "063-859-5406",
      "latitude": 35.963243,
      "longitude": 126.978808,
      "date": "2016-09-13"
    },
    {
      "id": 6,
      "institutionName": "전라북도 익산시청",
      "streetAddress": "전라북도 익산시 무왕로17길 47(영등동)",
      "lotAddress": "전라북도 익산시 마한초교 정문(영등동 817)",
      "purpose": "어린이보호",
      "cameraNum": 4,
      "pixel": 200,
      "storageDay": 30,
      "installationDate": "2010년 11월",
      "managementNum": "063-859-5406",
      "latitude": 35.963243,
      "longitude": 126.978808,
      "date": "2016-09-13"
    },
    {
      "id": 7,
      "institutionName": "전라북도 익산시청",
      "streetAddress": "전라북도 익산시 무왕로17길 47(영등동)",
      "lotAddress": "전라북도 익산시 마한초교 후문(영등동 817)",
      "purpose": "어린이보호",
      "cameraNum": 1,
      "pixel": 200,
      "storageDay": 30,
      "installationDate": "2010년 11월",
      "managementNum": "063-859-5406",
      "latitude": 35.962691,
      "longitude": 126.97894,
      "date": "2016-09-13"
    },
    {
      "id": 8,
      "institutionName": "전라북도 익산시청",
      "streetAddress": "전라북도 익산시 무왕로17길 47(영등동)",
      "lotAddress": "전라북도 익산시 마한초교 후문(영등동 817)",
      "purpose": "어린이보호",
      "cameraNum": 4,
      "pixel": 200,
      "storageDay": 30,
      "installationDate": "2010년 11월",
      "managementNum": "063-859-5406",
      "latitude": 35.962691,
      "longitude": 126.97894,
      "date": "2016-09-13"
    },
    {
      "id": 9,
      "institutionName": "전라북도 익산시청",
      "streetAddress": "전라북도 익산시 부송1로 115(부송동)",
      "lotAddress": "전라북도 익산시 한벌초교 정문(부송동1204)",
      "purpose": "어린이보호",
      "cameraNum": 1,
      "pixel": 200,
      "storageDay": 30,
      "installationDate": "2010년 11월",
      "managementNum": "063-859-5406",
      "latitude": 35.959276,
      "longitude": 126.994423,
      "date": "2016-09-13"
    },
    {
      "id": 10,
      "institutionName": "전라북도 익산시청",
      "streetAddress": "전라북도 익산시 부송1로 115(부송동)",
      "lotAddress": "전라북도 익산시 한벌초교 정문(부송동1204)",
      "purpose": "어린이보호",
      "cameraNum": 3,
      "pixel": 200,
      "storageDay": 30,
      "installationDate": "2010년 11월",
      "managementNum": "063-859-5406",
      "latitude": 35.959276,
      "longitude": 126.994423,
      "date": "2016-09-13"
    },
    {
      "id": 11,
      "institutionName": "전라북도 익산시청",
      "streetAddress": "전라북도 익산시 부송1로 115(부송동)",
      "lotAddress": "전라북도 익산시 한벌초교 후문(부송동1204)",
      "purpose": "어린이보호",
      "cameraNum": 1,
      "pixel": 130,
      "storageDay": 30,
      "installationDate": "2010년 11월",
      "managementNum": "063-859-5406",
      "latitude": 35.959343,
      "longitude": 126.994341,
      "date": "2016-09-13"
    },
    {
      "id": 12,
      "institutionName": "전라북도 익산시청",
      "streetAddress": "전라북도 익산시 부송1로 115(부송동)",
      "lotAddress": "전라북도 익산시 한벌초교 후문(부송동1204)",
      "purpose": "어린이보호",
      "cameraNum": 2,
      "pixel": 41,
      "storageDay": 30,
      "installationDate": "2010년 11월",
      "managementNum": "063-859-5406",
      "latitude": 35.959343,
      "longitude": 126.994341,
      "date": "2016-09-13"
    },
    {
      "id": 13,
      "institutionName": "전라북도 익산시청",
      "streetAddress": "전라북도 익산시 궁동로 29(영등동)",
      "lotAddress": "전라북도 익산시 백제초교 영등교회앞(영등동 813)",
      "purpose": "어린이보호",
      "cameraNum": 1,
      "pixel": 130,
      "storageDay": 30,
      "installationDate": "2010년 11월",
      "managementNum": "063-859-5406",
      "latitude": 35.962961,
      "longitude": 126.974275,
      "date": "2016-09-13"
    },
    {
      "id": 14,
      "institutionName": "전라북도 익산시청",
      "streetAddress": "전라북도 익산시 궁동로 29(영등동)",
      "lotAddress": "전라북도 익산시 백제초교 영등교회앞(영등동 813)",
      "purpose": "어린이보호",
      "cameraNum": 4,
      "pixel": 41,
      "storageDay": 30,
      "installationDate": "2010년 11월",
      "managementNum": "063-859-5406",
      "latitude": 35.962961,
      "longitude": 126.974275,
      "date": "2016-09-13"
    },
    {
      "id": 15,
      "institutionName": "전라북도 익산시청",
      "streetAddress": "전라북도 익산시 궁동로 29(영등동)",
      "lotAddress": "전라북도 익산시 백제초교 후문 주차장(영등동 813)",
      "purpose": "어린이보호",
      "cameraNum": 1,
      "pixel": 130,
      "storageDay": 30,
      "installationDate": "2010년 11월",
      "managementNum": "063-859-5406",
      "latitude": 35.962961,
      "longitude": 126.974275,
      "date": "2016-09-13"
    },
    {
      "id": 16,
      "institutionName": "전라북도 익산시청",
      "streetAddress": "전라북도 익산시 궁동로 29(영등동)",
      "lotAddress": "전라북도 익산시 백제초교 후문 주차장(영등동 813)",
      "purpose": "어린이보호",
      "cameraNum": 3,
      "pixel": 41,
      "storageDay": 30,
      "installationDate": "2010년 11월",
      "managementNum": "063-859-5406",
      "latitude": 35.962961,
      "longitude": 126.974275,
      "date": "2016-09-13"
    },
    {
      "id": 17,
      "institutionName": "전라북도 익산시청",
      "streetAddress": "전라북도 익산시 궁동로 29(영등동)",
      "lotAddress": "전라북도 익산시 백제초교 공원옆(영등동 813)",
      "purpose": "어린이보호",
      "cameraNum": 1,
      "pixel": 130,
      "storageDay": 30,
      "installationDate": "2010년 11월",
      "managementNum": "063-859-5406",
      "latitude": 35.962954,
      "longitude": 126.974291,
      "date": "2016-09-13"
    },
    {
      "id": 18,
      "institutionName": "전라북도 익산시청",
      "streetAddress": "전라북도 익산시 궁동로 29(영등동)",
      "lotAddress": "전라북도 익산시 백제초교 공원옆(영등동 813)",
      "purpose": "어린이보호",
      "cameraNum": 3,
      "pixel": 41,
      "storageDay": 30,
      "installationDate": "2010년 11월",
      "managementNum": "063-859-5406",
      "latitude": 35.962954,
      "longitude": 126.974291,
      "date": "2016-09-13"
    },
    {
      "id": 19,
      "institutionName": "전라북도 익산시청",
      "streetAddress": "전라북도 익산시 부송1로 32(부송동)",
      "lotAddress": "전라북도 익산시 부천초교 정문(부송동 1070)",
      "purpose": "어린이보호",
      "cameraNum": 1,
      "pixel": 130,
      "storageDay": 30,
      "installationDate": "2010년 11월",
      "managementNum": "063-859-5406",
      "latitude": 35.956746,
      "longitude": 126.985567,
      "date": "2016-09-13"
    },
    {
      "id": 20,
      "institutionName": "전라북도 익산시청",
      "streetAddress": "전라북도 익산시 부송1로 32(부송동)",
      "lotAddress": "전라북도 익산시 부천초교 정문(부송동 1070)",
      "purpose": "어린이보호",
      "cameraNum": 2,
      "pixel": 41,
      "storageDay": 30,
      "installationDate": "2010년 11월",
      "managementNum": "063-859-5406",
      "latitude": 35.956746,
      "longitude": 126.985567,
      "date": "2016-09-13"
    },
    {
      "id": 21,
      "institutionName": "전라북도 익산시청",
      "streetAddress": "전라북도 익산시 부송1로 32(부송동)",
      "lotAddress": "전라북도 익산시 부천초교 후문(부송동 1070)",
      "purpose": "어린이보호",
      "cameraNum": 1,
      "pixel": 130,
      "storageDay": 30,
      "installationDate": "2010년 11월",
      "managementNum": "063-859-5406",
      "latitude": 35.956753,
      "longitude": 126.985624,
      "date": "2016-09-13"
    },
    {
      "id": 22,
      "institutionName": "전라북도 익산시청",
      "streetAddress": "전라북도 익산시 부송1로 32(부송동)",
      "lotAddress": "전라북도 익산시 부천초교 후문(부송동 1070)",
      "purpose": "어린이보호",
      "cameraNum": 2,
      "pixel": 41,
      "storageDay": 30,
      "installationDate": "2010년 11월",
      "managementNum": "063-859-5406",
      "latitude": 35.956753,
      "longitude": 126.985624,
      "date": "2016-09-13"
    },
    {
      "id": 23,
      "institutionName": "전라북도 익산시청",
      "streetAddress": "전라북도 익산시 배산로14길 12-4(모현동1가)",
      "lotAddress": "전라북도 익산시 모현초교 정문(모현동 1가 264-7)",
      "purpose": "어린이보호",
      "cameraNum": 1,
      "pixel": 130,
      "storageDay": 30,
      "installationDate": "2010년 11월",
      "managementNum": "063-859-5406",
      "latitude": 35.945511,
      "longitude": 126.939571,
      "date": "2016-09-13"
    },
    {
      "id": 24,
      "institutionName": "전라북도 익산시청",
      "streetAddress": "전라북도 익산시 배산로14길 12-4(모현동1가)",
      "lotAddress": "전라북도 익산시 모현초교 정문(모현동 1가 264-7)",
      "purpose": "어린이보호",
      "cameraNum": 3,
      "pixel": 41,
      "storageDay": 30,
      "installationDate": "2010년 11월",
      "managementNum": "063-859-5406",
      "latitude": 35.945511,
      "longitude": 126.939571,
      "date": "2016-09-13"
    },
    {
      "id": 25,
      "institutionName": "전라북도 익산시청",
      "streetAddress": "전라북도 익산시 배산로14길 12-4(모현동1가)",
      "lotAddress": "전라북도 익산시 모현초교 후문(모현동 1가 264-7)",
      "purpose": "어린이보호",
      "cameraNum": 1,
      "pixel": 130,
      "storageDay": 30,
      "installationDate": "2010년 11월",
      "managementNum": "063-859-5406",
      "latitude": 35.945531,
      "longitude": 126.939624,
      "date": "2016-09-13"
    },
    {
      "id": 26,
      "institutionName": "전라북도 익산시청",
      "streetAddress": "전라북도 익산시 배산로14길 12-4(모현동1가)",
      "lotAddress": "전라북도 익산시 모현초교 후문(모현동 1가 264-7)",
      "purpose": "어린이보호",
      "cameraNum": 2,
      "pixel": 41,
      "storageDay": 30,
      "installationDate": "2010년 11월",
      "managementNum": "063-859-5406",
      "latitude": 35.945531,
      "longitude": 126.939624,
      "date": "2016-09-13"
    },
    {
      "id": 27,
      "institutionName": "전라북도 익산시청",
      "streetAddress": "전라북도 익산시 고봉로 190-3(영등동)",
      "lotAddress": "전라북도 익산시 동북초교 후문(영등동 260-5)",
      "purpose": "어린이보호",
      "cameraNum": 1,
      "pixel": 130,
      "storageDay": 30,
      "installationDate": "2010년 11월",
      "managementNum": "063-859-5406",
      "latitude": 35.950045,
      "longitude": 126.968596,
      "date": "2016-09-13"
    },
    {
      "id": 28,
      "institutionName": "전라북도 익산시청",
      "streetAddress": "전라북도 익산시 고봉로 190-3(영등동)",
      "lotAddress": "전라북도 익산시 동북초교 후문(영등동 260-5)",
      "purpose": "어린이보호",
      "cameraNum": 3,
      "pixel": 41,
      "storageDay": 30,
      "installationDate": "2010년 11월",
      "managementNum": "063-859-5406",
      "latitude": 35.950045,
      "longitude": 126.968596,
      "date": "2016-09-13"
    },
    {
      "id": 29,
      "institutionName": "전라북도 익산시청",
      "streetAddress": "전라북도 익산시 동서로61길 27-38(어양동)",
      "lotAddress": "전라북도 익산시 어양초교 정문(어양동 593)",
      "purpose": "어린이보호",
      "cameraNum": 1,
      "pixel": 130,
      "storageDay": 30,
      "installationDate": "2010년 11월",
      "managementNum": "063-859-5406",
      "latitude": 35.961871,
      "longitude": 126.983363,
      "date": "2016-09-13"
    },
    {
      "id": 30,
      "institutionName": "전라북도 익산시청",
      "streetAddress": "전라북도 익산시 동서로61길 27-38(어양동)",
      "lotAddress": "전라북도 익산시 어양초교 정문(어양동 593)",
      "purpose": "어린이보호",
      "cameraNum": 4,
      "pixel": 41,
      "storageDay": 30,
      "installationDate": "2010년 11월",
      "managementNum": "063-859-5406",
      "latitude": 35.961871,
      "longitude": 126.983363,
      "date": "2016-09-13"
    },
    {
      "id": 31,
      "institutionName": "전라북도 익산시청",
      "streetAddress": "전라북도 익산시 동서로61길 27-38(어양동)",
      "lotAddress": "전라북도 익산시 어양초교 후문(어양동 593)",
      "purpose": "어린이보호",
      "cameraNum": 1,
      "pixel": 130,
      "storageDay": 30,
      "installationDate": "2010년 11월",
      "managementNum": "063-859-5406",
      "latitude": 35.961871,
      "longitude": 126.983363,
      "date": "2016-09-13"
    },
    {
      "id": 32,
      "institutionName": "전라북도 익산시청",
      "streetAddress": "전라북도 익산시 동서로61길 27-38(어양동)",
      "lotAddress": "전라북도 익산시 어양초교 후문(어양동 593)",
      "purpose": "어린이보호",
      "cameraNum": 3,
      "pixel": 41,
      "storageDay": 30,
      "installationDate": "2010년 11월",
      "managementNum": "063-859-5406",
      "latitude": 35.961871,
      "longitude": 126.983363,
      "date": "2016-09-13"
    },
    {
      "id": 33,
      "institutionName": "전라북도 익산시청",
      "streetAddress": "",
      "lotAddress": "전라북도 익산시 송학초교 정문(송학동 109)",
      "purpose": "어린이보호",
      "cameraNum": 1,
      "pixel": 130,
      "storageDay": 30,
      "installationDate": "2010년 11월",
      "managementNum": "063-859-5406",
      "latitude": 35.936957,
      "longitude": 126.940626,
      "date": "2016-09-13"
    },
    {
      "id": 34,
      "institutionName": "전라북도 익산시청",
      "streetAddress": "",
      "lotAddress": "전라북도 익산시 송학초교 정문(송학동 109)",
      "purpose": "어린이보호",
      "cameraNum": 3,
      "pixel": 41,
      "storageDay": 30,
      "installationDate": "2010년 11월",
      "managementNum": "063-859-5406",
      "latitude": 35.936957,
      "longitude": 126.940626,
      "date": "2016-09-13"
    },
    {
      "id": 35,
      "institutionName": "전라북도 익산시청",
      "streetAddress": "",
      "lotAddress": "전라북도 익산시 송학초교 후문(송학동 109)",
      "purpose": "어린이보호",
      "cameraNum": 1,
      "pixel": 130,
      "storageDay": 30,
      "installationDate": "2010년 11월",
      "managementNum": "063-859-5406",
      "latitude": 35.936937,
      "longitude": 126.940569,
      "date": "2016-09-13"
    },
    {
      "id": 36,
      "institutionName": "전라북도 익산시청",
      "streetAddress": "",
      "lotAddress": "전라북도 익산시 송학초교 후문(송학동 109)",
      "purpose": "어린이보호",
      "cameraNum": 3,
      "pixel": 41,
      "storageDay": 30,
      "installationDate": "2010년 11월",
      "managementNum": "063-859-5406",
      "latitude": 35.936937,
      "longitude": 126.940569,
      "date": "2016-09-13"
    },
    {
      "id": 37,
      "institutionName": "전라북도 익산시청",
      "streetAddress": "전라북도 익산시 부송로2길 27(부송동)",
      "lotAddress": "전라북도 익산시 부송초교 정문(부송동 1047)",
      "purpose": "어린이보호",
      "cameraNum": 1,
      "pixel": 130,
      "storageDay": 30,
      "installationDate": "2010년 11월",
      "managementNum": "063-859-5406",
      "latitude": 35.955813,
      "longitude": 126.993667,
      "date": "2016-09-13"
    },
    {
      "id": 38,
      "institutionName": "전라북도 익산시청",
      "streetAddress": "전라북도 익산시 부송로2길 27(부송동)",
      "lotAddress": "전라북도 익산시 부송초교 정문(부송동 1047)",
      "purpose": "어린이보호",
      "cameraNum": 3,
      "pixel": 41,
      "storageDay": 30,
      "installationDate": "2010년 11월",
      "managementNum": "063-859-5406",
      "latitude": 35.955813,
      "longitude": 126.993667,
      "date": "2016-09-13"
    },
    {
      "id": 39,
      "institutionName": "전라북도 익산시청",
      "streetAddress": "전라북도 익산시 부송로2길 27(부송동)",
      "lotAddress": "전라북도 익산시 부송초교 후문(부송동 1047)",
      "purpose": "어린이보호",
      "cameraNum": 1,
      "pixel": 130,
      "storageDay": 30,
      "installationDate": "2010년 11월",
      "managementNum": "063-859-5406",
      "latitude": 35.955996,
      "longitude": 126.993627,
      "date": "2016-09-13"
    },
    {
      "id": 40,
      "institutionName": "전라북도 익산시청",
      "streetAddress": "전라북도 익산시 부송로2길 27(부송동)",
      "lotAddress": "전라북도 익산시 부송초교 후문(부송동 1047)",
      "purpose": "어린이보호",
      "cameraNum": 3,
      "pixel": 41,
      "storageDay": 30,
      "installationDate": "2010년 11월",
      "managementNum": "063-859-5406",
      "latitude": 35.955996,
      "longitude": 126.993627,
      "date": "2016-09-13"
    },
    {
      "id": 41,
      "institutionName": "전라북도 익산시청",
      "streetAddress": "전라북도 익산시 평동로23길 46(동산동)",
      "lotAddress": "전라북도 익산시 동산초교 정문 약사암앞(동산동 220)",
      "purpose": "어린이보호",
      "cameraNum": 1,
      "pixel": 130,
      "storageDay": 30,
      "installationDate": "2011년 8월",
      "managementNum": "063-859-5406",
      "latitude": 35.932401,
      "longitude": 126.963527,
      "date": "2016-09-13"
    },
    {
      "id": 42,
      "institutionName": "전라북도 익산시청",
      "streetAddress": "전라북도 익산시 평동로23길 46(동산동)",
      "lotAddress": "전라북도 익산시 동산초교 정문 약사암앞(동산동 220)",
      "purpose": "어린이보호",
      "cameraNum": 3,
      "pixel": 41,
      "storageDay": 30,
      "installationDate": "2011년 8월",
      "managementNum": "063-859-5406",
      "latitude": 35.932401,
      "longitude": 126.963527,
      "date": "2016-09-13"
    },
    {
      "id": 43,
      "institutionName": "전라북도 익산시청",
      "streetAddress": "전라북도 익산시 평동로23길 46(동산동)",
      "lotAddress": "전라북도 익산시 동산초교 후문 명성교회(동산동 220)",
      "purpose": "어린이보호",
      "cameraNum": 1,
      "pixel": 130,
      "storageDay": 30,
      "installationDate": "2011년 8월",
      "managementNum": "063-859-5406",
      "latitude": 35.932408,
      "longitude": 126.96356,
      "date": "2016-09-13"
    },
    {
      "id": 44,
      "institutionName": "전라북도 익산시청",
      "streetAddress": "전라북도 익산시 평동로23길 46(동산동)",
      "lotAddress": "전라북도 익산시 동산초교 후문 명성교회(동산동 220)",
      "purpose": "어린이보호",
      "cameraNum": 3,
      "pixel": 41,
      "storageDay": 30,
      "installationDate": "2011년 8월",
      "managementNum": "063-859-5406",
      "latitude": 35.932408,
      "longitude": 126.96356,
      "date": "2016-09-13"
    },
    {
      "id": 45,
      "institutionName": "전라북도 익산시청",
      "streetAddress": "전라북도 익산시 동서로41길 37(영등동)",
      "lotAddress": "전라북도 익산시 영등초교 남원추어탕(영등동 762)",
      "purpose": "어린이보호",
      "cameraNum": 1,
      "pixel": 130,
      "storageDay": 30,
      "installationDate": "2011년 8월",
      "managementNum": "063-859-5406",
      "latitude": 35.953449,
      "longitude": 126.97214,
      "date": "2016-09-13"
    },
    {
      "id": 46,
      "institutionName": "전라북도 익산시청",
      "streetAddress": "전라북도 익산시 동서로41길 37(영등동)",
      "lotAddress": "전라북도 익산시 영등초교 남원추어탕(영등동 762)",
      "purpose": "어린이보호",
      "cameraNum": 3,
      "pixel": 41,
      "storageDay": 30,
      "installationDate": "2011년 8월",
      "managementNum": "063-859-5406",
      "latitude": 35.953449,
      "longitude": 126.97214,
      "date": "2016-09-13"
    },
    {
      "id": 47,
      "institutionName": "전라북도 익산시청",
      "streetAddress": "전라북도 익산시 인북로 77(갈산동)",
      "lotAddress": "전라북도 익산시 중앙초교 성락교회앞(갈산동 47)",
      "purpose": "어린이보호",
      "cameraNum": 1,
      "pixel": 130,
      "storageDay": 30,
      "installationDate": "2011년 8월",
      "managementNum": "063-859-5406",
      "latitude": 35.937024,
      "longitude": 126.951564,
      "date": "2016-09-13"
    },
    {
      "id": 48,
      "institutionName": "전라북도 익산시청",
      "streetAddress": "전라북도 익산시 인북로 77(갈산동)",
      "lotAddress": "전라북도 익산시 중앙초교 성락교회앞(갈산동 47)",
      "purpose": "어린이보호",
      "cameraNum": 4,
      "pixel": 41,
      "storageDay": 30,
      "installationDate": "2011년 8월",
      "managementNum": "063-859-5406",
      "latitude": 35.937024,
      "longitude": 126.951564,
      "date": "2016-09-13"
    },
    {
      "id": 49,
      "institutionName": "전라북도 익산시청",
      "streetAddress": "전라북도 익산시 인북로 77(갈산동)",
      "lotAddress": "전라북도 익산시 중앙초교 토토가구(갈산동 47)",
      "purpose": "어린이보호",
      "cameraNum": 1,
      "pixel": 130,
      "storageDay": 30,
      "installationDate": "2011년 8월",
      "managementNum": "063-859-5406",
      "latitude": 35.937024,
      "longitude": 126.951564,
      "date": "2016-09-13"
    },
    {
      "id": 50,
      "institutionName": "전라북도 익산시청",
      "streetAddress": "전라북도 익산시 인북로 77(갈산동)",
      "lotAddress": "전라북도 익산시 중앙초교 토토가구(갈산동 47)",
      "purpose": "어린이보호",
      "cameraNum": 4,
      "pixel": 41,
      "storageDay": 30,
      "installationDate": "2011년 8월",
      "managementNum": "063-859-5406",
      "latitude": 35.937024,
      "longitude": 126.951564,
      "date": "2016-09-13"
    },
    {
      "id": 51,
      "institutionName": "전라북도 익산시청",
      "streetAddress": "전라북도 익산시 중앙로15길 20(마동)",
      "lotAddress": "전라북도 익산시 이리초교 정문 전북대캠퍼스앞(마동 260-2)",
      "purpose": "어린이보호",
      "cameraNum": 1,
      "pixel": 130,
      "storageDay": 30,
      "installationDate": "2011년 8월",
      "managementNum": "063-859-5406",
      "latitude": 35.940567,
      "longitude": 126.959277,
      "date": "2016-09-13"
    },
    {
      "id": 52,
      "institutionName": "전라북도 익산시청",
      "streetAddress": "전라북도 익산시 중앙로15길 20(마동)",
      "lotAddress": "전라북도 익산시 이리초교 정문 전북대캠퍼스앞(마동 260-2)",
      "purpose": "어린이보호",
      "cameraNum": 3,
      "pixel": 41,
      "storageDay": 30,
      "installationDate": "2011년 8월",
      "managementNum": "063-859-5406",
      "latitude": 35.940567,
      "longitude": 126.959277,
      "date": "2016-09-13"
    },
    {
      "id": 53,
      "institutionName": "전라북도 익산시청",
      "streetAddress": "전라북도 익산시 중앙로15길 20(마동)",
      "lotAddress": "전라북도 익산시 이리초교 후문 대원식품앞(마동 260-2)",
      "purpose": "어린이보호",
      "cameraNum": 1,
      "pixel": 130,
      "storageDay": 30,
      "installationDate": "2011년 8월",
      "managementNum": "063-859-5406",
      "latitude": 35.940513,
      "longitude": 126.959236,
      "date": "2016-09-13"
    },
    {
      "id": 54,
      "institutionName": "전라북도 익산시청",
      "streetAddress": "전라북도 익산시 중앙로15길 20(마동)",
      "lotAddress": "전라북도 익산시 이리초교 후문 대원식품앞(마동 260-2)",
      "purpose": "어린이보호",
      "cameraNum": 3,
      "pixel": 41,
      "storageDay": 30,
      "installationDate": "2011년 8월",
      "managementNum": "063-859-5406",
      "latitude": 35.940513,
      "longitude": 126.959236,
      "date": "2016-09-13"
    },
    {
      "id": 55,
      "institutionName": "전라북도 익산시청",
      "streetAddress": "전라북도 익산시 무왕로25길 26(부송동)",
      "lotAddress": "전라북도 익산시 궁동초교 부영5차앞(부송동 1119)",
      "purpose": "어린이보호",
      "cameraNum": 1,
      "pixel": 130,
      "storageDay": 30,
      "installationDate": "2011년 8월",
      "managementNum": "063-859-5406",
      "latitude": 35.962688,
      "longitude": 126.99379,
      "date": "2016-09-13"
    },
    {
      "id": 56,
      "institutionName": "전라북도 익산시청",
      "streetAddress": "전라북도 익산시 무왕로25길 26(부송동)",
      "lotAddress": "전라북도 익산시 궁동초교 부영5차앞(부송동 1119)",
      "purpose": "어린이보호",
      "cameraNum": 3,
      "pixel": 41,
      "storageDay": 30,
      "installationDate": "2011년 8월",
      "managementNum": "063-859-5406",
      "latitude": 35.962688,
      "longitude": 126.99379,
      "date": "2016-09-13"
    },
    {
      "id": 57,
      "institutionName": "전라북도 익산시청",
      "streetAddress": "전라북도 익산시 동천로7길 18(동산동)",
      "lotAddress": "전라북도 익산시 동남초교 삼호아파트 입구(동산동 140-1)",
      "purpose": "어린이보호",
      "cameraNum": 1,
      "pixel": 130,
      "storageDay": 30,
      "installationDate": "2011년 8월",
      "managementNum": "063-859-5406",
      "latitude": 35.93186,
      "longitude": 126.970568,
      "date": "2016-09-13"
    },
    {
      "id": 58,
      "institutionName": "전라북도 익산시청",
      "streetAddress": "전라북도 익산시 동천로7길 18(동산동)",
      "lotAddress": "전라북도 익산시 동남초교 삼호아파트 입구(동산동 140-1)",
      "purpose": "어린이보호",
      "cameraNum": 3,
      "pixel": 41,
      "storageDay": 30,
      "installationDate": "2011년 8월",
      "managementNum": "063-859-5406",
      "latitude": 35.93186,
      "longitude": 126.970568,
      "date": "2016-09-13"
    },
    {
      "id": 59,
      "institutionName": "전라북도 익산시청",
      "streetAddress": "선화로23길 44",
      "lotAddress": "전라북도 익산시 고현초교 정문앞 삼거리(모현동1가 73)",
      "purpose": "어린이보호",
      "cameraNum": 1,
      "pixel": 130,
      "storageDay": 30,
      "installationDate": "2011년 8월",
      "managementNum": "063-859-5406",
      "latitude": 35.952048,
      "longitude": 126.947007,
      "date": "2016-09-13"
    },
    {
      "id": 60,
      "institutionName": "전라북도 익산시청",
      "streetAddress": "선화로23길 44",
      "lotAddress": "전라북도 익산시 고현초교 정문앞 삼거리(모현동1가 73)",
      "purpose": "어린이보호",
      "cameraNum": 3,
      "pixel": 41,
      "storageDay": 30,
      "installationDate": "2011년 8월",
      "managementNum": "063-859-5406",
      "latitude": 35.952048,
      "longitude": 126.947007,
      "date": "2016-09-13"
    },
    {
      "id": 61,
      "institutionName": "전라북도 익산시청",
      "streetAddress": "선화로23길 44",
      "lotAddress": "전라북도 익산시 고현초교 후문 주차장(모현동1가 73)",
      "purpose": "어린이보호",
      "cameraNum": 1,
      "pixel": 130,
      "storageDay": 30,
      "installationDate": "2011년 8월",
      "managementNum": "063-859-5406",
      "latitude": 35.952048,
      "longitude": 126.947007,
      "date": "2016-09-13"
    },
    {
      "id": 62,
      "institutionName": "전라북도 익산시청",
      "streetAddress": "선화로23길 44",
      "lotAddress": "전라북도 익산시 고현초교 후문 주차장(모현동1가 73)",
      "purpose": "어린이보호",
      "cameraNum": 3,
      "pixel": 41,
      "storageDay": 30,
      "installationDate": "2011년 8월",
      "managementNum": "063-859-5406",
      "latitude": 35.952048,
      "longitude": 126.947007,
      "date": "2016-09-13"
    },
    {
      "id": 63,
      "institutionName": "전라북도 익산시청",
      "streetAddress": "전라북도 익산시 동서로61길 27-38(어양동)",
      "lotAddress": "전라북도 익산시 익산초교 정문 삼화페인트(어양동 593)",
      "purpose": "어린이보호",
      "cameraNum": 1,
      "pixel": 130,
      "storageDay": 30,
      "installationDate": "2011년 8월",
      "managementNum": "063-859-5406",
      "latitude": 35.954435,
      "longitude": 126.97977,
      "date": "2016-09-13"
    },
    {
      "id": 64,
      "institutionName": "전라북도 익산시청",
      "streetAddress": "전라북도 익산시 동서로61길 27-38(어양동)",
      "lotAddress": "전라북도 익산시 익산초교 정문 삼화페인트(어양동 593)",
      "purpose": "어린이보호",
      "cameraNum": 4,
      "pixel": 41,
      "storageDay": 30,
      "installationDate": "2011년 8월",
      "managementNum": "063-859-5406",
      "latitude": 35.954435,
      "longitude": 126.97977,
      "date": "2016-09-13"
    },
    {
      "id": 65,
      "institutionName": "전라북도 익산시청",
      "streetAddress": "전라북도 익산시 동서로61길 27-38(어양동)",
      "lotAddress": "전라북도 익산시 익산초교 후문 큰사랑어린이집(어양동 593)",
      "purpose": "어린이보호",
      "cameraNum": 1,
      "pixel": 130,
      "storageDay": 30,
      "installationDate": "2011년 8월",
      "managementNum": "063-859-5406",
      "latitude": 35.954435,
      "longitude": 126.97977,
      "date": "2016-09-13"
    },
    {
      "id": 66,
      "institutionName": "전라북도 익산시청",
      "streetAddress": "전라북도 익산시 동서로61길 27-38(어양동)",
      "lotAddress": "전라북도 익산시 익산초교 후문 큰사랑어린이집(어양동 593)",
      "purpose": "어린이보호",
      "cameraNum": 3,
      "pixel": 41,
      "storageDay": 30,
      "installationDate": "2011년 8월",
      "managementNum": "063-859-5406",
      "latitude": 35.954435,
      "longitude": 126.97977,
      "date": "2016-09-13"
    },
    {
      "id": 67,
      "institutionName": "전라북도 익산시청",
      "streetAddress": "전라북도 익산시 동서로19길 100(신동)",
      "lotAddress": "전라북도 익산시 북일초교 정문앞 삼거리(신동 764-1)",
      "purpose": "어린이보호",
      "cameraNum": 1,
      "pixel": 130,
      "storageDay": 30,
      "installationDate": "2011년 8월",
      "managementNum": "063-859-5406",
      "latitude": 35.963992,
      "longitude": 126.959431,
      "date": "2016-09-13"
    },
    {
      "id": 68,
      "institutionName": "전라북도 익산시청",
      "streetAddress": "전라북도 익산시 동서로19길 100(신동)",
      "lotAddress": "전라북도 익산시 북일초교 정문앞 삼거리(신동 764-1)",
      "purpose": "어린이보호",
      "cameraNum": 3,
      "pixel": 41,
      "storageDay": 30,
      "installationDate": "2011년 8월",
      "managementNum": "063-859-5406",
      "latitude": 35.963992,
      "longitude": 126.959431,
      "date": "2016-09-13"
    },
    {
      "id": 69,
      "institutionName": "전라북도 익산시청",
      "streetAddress": "전라북도 익산시 동서로19길 100(신동)",
      "lotAddress": "전라북도 익산시 북일초교 훔눈 에스터플라워(신동 764-1)",
      "purpose": "어린이보호",
      "cameraNum": 1,
      "pixel": 130,
      "storageDay": 30,
      "installationDate": "2011년 8월",
      "managementNum": "063-859-5406",
      "latitude": 35.963992,
      "longitude": 126.959431,
      "date": "2016-09-13"
    },
    {
      "id": 70,
      "institutionName": "전라북도 익산시청",
      "streetAddress": "전라북도 익산시 동서로19길 100(신동)",
      "lotAddress": "전라북도 익산시 북일초교 훔눈 에스터플라워(신동 764-1)",
      "purpose": "어린이보호",
      "cameraNum": 3,
      "pixel": 41,
      "storageDay": 30,
      "installationDate": "2011년 8월",
      "managementNum": "063-859-5406",
      "latitude": 35.963992,
      "longitude": 126.959431,
      "date": "2016-09-13"
    },
    {
      "id": 71,
      "institutionName": "전라북도 익산시청",
      "streetAddress": "전라북도 익산시 인북로 171(남중동)",
      "lotAddress": "전라북도 익산시 남창초교 정문앞(남중동 252-2)",
      "purpose": "어린이보호",
      "cameraNum": 1,
      "pixel": 130,
      "storageDay": 30,
      "installationDate": "2011년 8월",
      "managementNum": "063-859-5406",
      "latitude": 35.945261,
      "longitude": 126.954015,
      "date": "2016-09-13"
    },
    {
      "id": 72,
      "institutionName": "전라북도 익산시청",
      "streetAddress": "전라북도 익산시 인북로 171(남중동)",
      "lotAddress": "전라북도 익산시 남창초교 정문앞(남중동 252-2)",
      "purpose": "어린이보호",
      "cameraNum": 4,
      "pixel": 41,
      "storageDay": 30,
      "installationDate": "2011년 8월",
      "managementNum": "063-859-5406",
      "latitude": 35.945261,
      "longitude": 126.954015,
      "date": "2016-09-13"
    },
    {
      "id": 73,
      "institutionName": "전라북도 익산시청",
      "streetAddress": "전라북도 익산시 인북로 171(남중동)",
      "lotAddress": "전라북도 익산시 남창초교 후문 경전사 사거리(남중동 252-2)",
      "purpose": "어린이보호",
      "cameraNum": 1,
      "pixel": 130,
      "storageDay": 30,
      "installationDate": "2011년 8월",
      "managementNum": "063-859-5406",
      "latitude": 35.945261,
      "longitude": 126.954015,
      "date": "2016-09-13"
    },
    {
      "id": 74,
      "institutionName": "전라북도 익산시청",
      "streetAddress": "전라북도 익산시 인북로 171(남중동)",
      "lotAddress": "전라북도 익산시 남창초교 후문 경전사 사거리(남중동 252-2)",
      "purpose": "어린이보호",
      "cameraNum": 4,
      "pixel": 41,
      "storageDay": 30,
      "installationDate": "2011년 8월",
      "managementNum": "063-859-5406",
      "latitude": 35.945261,
      "longitude": 126.954015,
      "date": "2016-09-13"
    },
    {
      "id": 75,
      "institutionName": "전라북도 익산시청",
      "streetAddress": "전라북도 익산시 하나로10길 23(어양동)",
      "lotAddress": "전라북도 익산시 어양초교옆 아파트공원(어양동 692)",
      "purpose": "어린이보호",
      "cameraNum": 1,
      "pixel": 130,
      "storageDay": 30,
      "installationDate": "2011년 8월",
      "managementNum": "063-859-5406",
      "latitude": 35.961938,
      "longitude": 126.983363,
      "date": "2016-09-13"
    },
    {
      "id": 76,
      "institutionName": "전라북도 익산시청",
      "streetAddress": "전라북도 익산시 하나로10길 23(어양동)",
      "lotAddress": "전라북도 익산시 어양초교옆 아파트공원(어양동 692)",
      "purpose": "어린이보호",
      "cameraNum": 1,
      "pixel": 41,
      "storageDay": 30,
      "installationDate": "2011년 8월",
      "managementNum": "063-859-5406",
      "latitude": 35.961938,
      "longitude": 126.983363,
      "date": "2016-09-13"
    },
    {
      "id": 77,
      "institutionName": "전라북도 익산시청",
      "streetAddress": "전라북도 익산시 하나로10길 23(어양동)",
      "lotAddress": "전라북도 익산시 익산초교 후문 아이눈안경원(어양동 593)",
      "purpose": "어린이보호",
      "cameraNum": 1,
      "pixel": 130,
      "storageDay": 30,
      "installationDate": "2011년 8월",
      "managementNum": "063-859-5406",
      "latitude": 35.954913,
      "longitude": 126.979725,
      "date": "2016-09-13"
    },
    {
      "id": 78,
      "institutionName": "전라북도 익산시청",
      "streetAddress": "전라북도 익산시 하나로10길 23(어양동)",
      "lotAddress": "전라북도 익산시 익산초교 후문 아이눈안경원(어양동 593)",
      "purpose": "어린이보호",
      "cameraNum": 3,
      "pixel": 41,
      "storageDay": 30,
      "installationDate": "2011년 8월",
      "managementNum": "063-859-5406",
      "latitude": 35.954913,
      "longitude": 126.979725,
      "date": "2016-09-13"
    },
    {
      "id": 79,
      "institutionName": "전라북도 익산시청",
      "streetAddress": "",
      "lotAddress": "전라북도 익산시 신동초교 정문(신동 142-216)",
      "purpose": "어린이보호",
      "cameraNum": 1,
      "pixel": 130,
      "storageDay": 30,
      "installationDate": "2012년 10월",
      "managementNum": "063-859-5406",
      "latitude": 35.961931,
      "longitude": 126.967659,
      "date": "2016-09-13"
    },
    {
      "id": 80,
      "institutionName": "전라북도 익산시청",
      "streetAddress": "",
      "lotAddress": "전라북도 익산시 신동초교 정문(신동 142-216)",
      "purpose": "어린이보호",
      "cameraNum": 3,
      "pixel": 41,
      "storageDay": 30,
      "installationDate": "2012년 10월",
      "managementNum": "063-859-5406",
      "latitude": 35.961931,
      "longitude": 126.967659,
      "date": "2016-09-13"
    },
    {
      "id": 81,
      "institutionName": "전라북도 익산시청",
      "streetAddress": "",
      "lotAddress": "전라북도 익산시 팔봉초교 정문(팔봉동 402-3)",
      "purpose": "어린이보호",
      "cameraNum": 1,
      "pixel": 130,
      "storageDay": 30,
      "installationDate": "2012년 10월",
      "managementNum": "063-859-5406",
      "latitude": 35.967357,
      "longitude": 127.012694,
      "date": "2016-09-13"
    },
    {
      "id": 82,
      "institutionName": "전라북도 익산시청",
      "streetAddress": "",
      "lotAddress": "전라북도 익산시 팔봉초교 정문(팔봉동 402-3)",
      "purpose": "어린이보호",
      "cameraNum": 3,
      "pixel": 41,
      "storageDay": 30,
      "installationDate": "2012년 10월",
      "managementNum": "063-859-5406",
      "latitude": 35.967357,
      "longitude": 127.012694,
      "date": "2016-09-13"
    },
    {
      "id": 83,
      "institutionName": "전라북도 익산시청",
      "streetAddress": "",
      "lotAddress": "전라북도 익산시 신흥초교 정문(금강동 355-51)",
      "purpose": "어린이보호",
      "cameraNum": 1,
      "pixel": 130,
      "storageDay": 30,
      "installationDate": "2012년 10월",
      "managementNum": "063-859-5406",
      "latitude": 35.934484,
      "longitude": 126.97891,
      "date": "2016-09-13"
    },
    {
      "id": 84,
      "institutionName": "전라북도 익산시청",
      "streetAddress": "",
      "lotAddress": "전라북도 익산시 신흥초교 정문(금강동 355-51)",
      "purpose": "어린이보호",
      "cameraNum": 2,
      "pixel": 41,
      "storageDay": 30,
      "installationDate": "2012년 10월",
      "managementNum": "063-859-5406",
      "latitude": 35.934484,
      "longitude": 126.97891,
      "date": "2016-09-13"
    },
    {
      "id": 85,
      "institutionName": "전라북도 익산시청",
      "streetAddress": "",
      "lotAddress": "전라북도 익산시 옥야초교 정문(동산동 541-7)",
      "purpose": "어린이보호",
      "cameraNum": 1,
      "pixel": 130,
      "storageDay": 30,
      "installationDate": "2012년 10월",
      "managementNum": "063-859-5406",
      "latitude": 35.922609,
      "longitude": 126.959809,
      "date": "2016-09-13"
    },
    {
      "id": 86,
      "institutionName": "전라북도 익산시청",
      "streetAddress": "",
      "lotAddress": "전라북도 익산시 옥야초교 정문(동산동 541-7)",
      "purpose": "어린이보호",
      "cameraNum": 2,
      "pixel": 41,
      "storageDay": 30,
      "installationDate": "2012년 10월",
      "managementNum": "063-859-5406",
      "latitude": 35.922609,
      "longitude": 126.959809,
      "date": "2016-09-13"
    },
    {
      "id": 87,
      "institutionName": "전라북도 익산시청",
      "streetAddress": "",
      "lotAddress": "전라북도 익산시 서초교 정문(남중동 484)",
      "purpose": "어린이보호",
      "cameraNum": 1,
      "pixel": 130,
      "storageDay": 30,
      "installationDate": "2012년 10월",
      "managementNum": "063-859-5406",
      "latitude": 35.945829,
      "longitude": 126.948501,
      "date": "2016-09-13"
    },
    {
      "id": 88,
      "institutionName": "전라북도 익산시청",
      "streetAddress": "",
      "lotAddress": "전라북도 익산시 서초교 정문(남중동 484)",
      "purpose": "어린이보호",
      "cameraNum": 2,
      "pixel": 41,
      "storageDay": 30,
      "installationDate": "2012년 10월",
      "managementNum": "063-859-5406",
      "latitude": 35.945829,
      "longitude": 126.948501,
      "date": "2016-09-13"
    },
    {
      "id": 89,
      "institutionName": "전라북도 익산시청",
      "streetAddress": "",
      "lotAddress": "전라북도 익산시 서초교 통학로(남중동 484)",
      "purpose": "어린이보호",
      "cameraNum": 1,
      "pixel": 130,
      "storageDay": 30,
      "installationDate": "2012년 10월",
      "managementNum": "063-859-5406",
      "latitude": 35.945829,
      "longitude": 126.948501,
      "date": "2016-09-13"
    },
    {
      "id": 90,
      "institutionName": "전라북도 익산시청",
      "streetAddress": "",
      "lotAddress": "전라북도 익산시 서초교 통학로(남중동 484)",
      "purpose": "어린이보호",
      "cameraNum": 4,
      "pixel": 41,
      "storageDay": 30,
      "installationDate": "2012년 10월",
      "managementNum": "063-859-5406",
      "latitude": 35.945829,
      "longitude": 126.948501,
      "date": "2016-09-13"
    },
    {
      "id": 91,
      "institutionName": "전라북도 익산시청",
      "streetAddress": "",
      "lotAddress": "전라북도 익산시 북초교 정문(남중동 16-1)",
      "purpose": "어린이보호",
      "cameraNum": 1,
      "pixel": 130,
      "storageDay": 30,
      "installationDate": "2012년 10월",
      "managementNum": "063-859-5406",
      "latitude": 35.952834,
      "longitude": 126.960885,
      "date": "2016-09-13"
    },
    {
      "id": 92,
      "institutionName": "전라북도 익산시청",
      "streetAddress": "",
      "lotAddress": "전라북도 익산시 북초교 정문(남중동 16-1)",
      "purpose": "어린이보호",
      "cameraNum": 3,
      "pixel": 41,
      "storageDay": 30,
      "installationDate": "2012년 10월",
      "managementNum": "063-859-5406",
      "latitude": 35.952834,
      "longitude": 126.960885,
      "date": "2016-09-13"
    },
    {
      "id": 93,
      "institutionName": "전라북도 익산시청",
      "streetAddress": "",
      "lotAddress": "전라북도 익산시 남초교 정문(목천동 403-31)",
      "purpose": "어린이보호",
      "cameraNum": 1,
      "pixel": 130,
      "storageDay": 30,
      "installationDate": "2012년 10월",
      "managementNum": "063-859-5406",
      "latitude": 35.915523,
      "longitude": 126.929994,
      "date": "2016-09-13"
    },
    {
      "id": 94,
      "institutionName": "전라북도 익산시청",
      "streetAddress": "",
      "lotAddress": "전라북도 익산시 남초교 정문(목천동 403-31)",
      "purpose": "어린이보호",
      "cameraNum": 3,
      "pixel": 41,
      "storageDay": 30,
      "installationDate": "2012년 10월",
      "managementNum": "063-859-5406",
      "latitude": 35.915523,
      "longitude": 126.929994,
      "date": "2016-09-13"
    },
    {
      "id": 95,
      "institutionName": "전라북도 익산시청",
      "streetAddress": "",
      "lotAddress": "전라북도 익산시 계문초교 정문(신용동 666-3)",
      "purpose": "어린이보호",
      "cameraNum": 1,
      "pixel": 130,
      "storageDay": 30,
      "installationDate": "2012년 10월",
      "managementNum": "063-859-5406",
      "latitude": 35.973659,
      "longitude": 126.943891,
      "date": "2016-09-13"
    },
    {
      "id": 96,
      "institutionName": "전라북도 익산시청",
      "streetAddress": "",
      "lotAddress": "전라북도 익산시 계문초교 정문(신용동 666-3)",
      "purpose": "어린이보호",
      "cameraNum": 3,
      "pixel": 41,
      "storageDay": 30,
      "installationDate": "2012년 10월",
      "managementNum": "063-859-5406",
      "latitude": 35.973659,
      "longitude": 126.943891,
      "date": "2016-09-13"
    },
    {
      "id": 97,
      "institutionName": "전라북도 익산시청",
      "streetAddress": "전라북도 익산시 계문길 119(신용동)",
      "lotAddress": "전라북도 익산시 계문초교 후문(신용동 713-1)",
      "purpose": "어린이보호",
      "cameraNum": 1,
      "pixel": 130,
      "storageDay": 30,
      "installationDate": "2012년 10월",
      "managementNum": "063-859-5406",
      "latitude": 35.973659,
      "longitude": 126.943891,
      "date": "2016-09-13"
    },
    {
      "id": 98,
      "institutionName": "전라북도 익산시청",
      "streetAddress": "전라북도 익산시 계문길 119(신용동)",
      "lotAddress": "전라북도 익산시 계문초교 후문(신용동 713-1)",
      "purpose": "어린이보호",
      "cameraNum": 3,
      "pixel": 41,
      "storageDay": 30,
      "installationDate": "2012년 10월",
      "managementNum": "063-859-5406",
      "latitude": 35.973659,
      "longitude": 126.943891,
      "date": "2016-09-13"
    },
    {
      "id": 99,
      "institutionName": "전라북도 익산시청",
      "streetAddress": "",
      "lotAddress": "전라북도 익산시 삼성초교 정문(임상동 산 43-1)",
      "purpose": "어린이보호",
      "cameraNum": 1,
      "pixel": 130,
      "storageDay": 30,
      "installationDate": "2012년 10월",
      "managementNum": "063-859-5406",
      "latitude": 35.988627,
      "longitude": 126.976055,
      "date": "2016-09-13"
    },
    {
      "id": 100,
      "institutionName": "전라북도 익산시청",
      "streetAddress": "",
      "lotAddress": "전라북도 익산시 삼성초교 정문(임상동 산 43-1)",
      "purpose": "어린이보호",
      "cameraNum": 3,
      "pixel": 41,
      "storageDay": 30,
      "installationDate": "2012년 10월",
      "managementNum": "063-859-5406",
      "latitude": 35.988627,
      "longitude": 126.976055,
      "date": "2016-09-13"
    },
    {
      "id": 101,
      "institutionName": "전라북도 익산시청",
      "streetAddress": "",
      "lotAddress": "전라북도 익산시 석암초교 정문(석암동 418-18)",
      "purpose": "어린이보호",
      "cameraNum": 1,
      "pixel": 130,
      "storageDay": 30,
      "installationDate": "2012년 10월",
      "managementNum": "063-859-5406",
      "latitude": 35.935818,
      "longitude": 127.008212,
      "date": "2016-09-13"
    },
    {
      "id": 102,
      "institutionName": "전라북도 익산시청",
      "streetAddress": "",
      "lotAddress": "전라북도 익산시 석암초교 정문(석암동 418-18)",
      "purpose": "어린이보호",
      "cameraNum": 2,
      "pixel": 41,
      "storageDay": 30,
      "installationDate": "2012년 10월",
      "managementNum": "063-859-5406",
      "latitude": 35.935818,
      "longitude": 127.008212,
      "date": "2016-09-13"
    },
    {
      "id": 103,
      "institutionName": "전라북도 익산시청",
      "streetAddress": "",
      "lotAddress": "전라북도 익산시 석암초교 후문(석암동 209-15)",
      "purpose": "어린이보호",
      "cameraNum": 1,
      "pixel": 130,
      "storageDay": 30,
      "installationDate": "2012년 10월",
      "managementNum": "063-859-5406",
      "latitude": 35.935818,
      "longitude": 127.008212,
      "date": "2016-09-13"
    },
    {
      "id": 104,
      "institutionName": "전라북도 익산시청",
      "streetAddress": "",
      "lotAddress": "전라북도 익산시 석암초교 후문(석암동 209-15)",
      "purpose": "어린이보호",
      "cameraNum": 2,
      "pixel": 41,
      "storageDay": 30,
      "installationDate": "2012년 10월",
      "managementNum": "063-859-5406",
      "latitude": 35.935818,
      "longitude": 127.008212,
      "date": "2016-09-13"
    },
    {
      "id": 105,
      "institutionName": "전라북도 익산시청",
      "streetAddress": "",
      "lotAddress": "전라북도 익산시 통합관제센터(모현동2가 401-4)",
      "purpose": "어린이보호",
      "cameraNum": 1,
      "pixel": 130,
      "storageDay": 30,
      "installationDate": "2012년 10월",
      "managementNum": "063-859-5406",
      "latitude": 35.956379,
      "longitude": 126.934786,
      "date": "2016-09-13"
    },
    {
      "id": 106,
      "institutionName": "전라북도 익산시청",
      "streetAddress": "",
      "lotAddress": "전라북도 익산시 황등남초교 정문( 황등리 963)",
      "purpose": "어린이보호",
      "cameraNum": 4,
      "pixel": 200,
      "storageDay": 30,
      "installationDate": "2013년 9월",
      "managementNum": "063-859-5406",
      "latitude": 36.004273,
      "longitude": 126.939997,
      "date": "2016-09-13"
    },
    {
      "id": 107,
      "institutionName": "전라북도 익산시청",
      "streetAddress": "전라북도 익산시 함라면 함라1길 66",
      "lotAddress": "전라북도 익산시 함라초교 정문(함열리 139-1)",
      "purpose": "어린이보호",
      "cameraNum": 4,
      "pixel": 200,
      "storageDay": 30,
      "installationDate": "2013년 9월",
      "managementNum": "063-859-5406",
      "latitude": 36.059609,
      "longitude": 126.911579,
      "date": "2016-09-13"
    },
    {
      "id": 108,
      "institutionName": "전라북도 익산시청",
      "streetAddress": "",
      "lotAddress": "전라북도 익산시 성당초교 정문(갈산리 615)",
      "purpose": "어린이보호",
      "cameraNum": 5,
      "pixel": 200,
      "storageDay": 30,
      "installationDate": "2013년 9월",
      "managementNum": "063-859-5406",
      "latitude": 36.100423,
      "longitude": 126.926982,
      "date": "2016-09-13"
    },
    {
      "id": 109,
      "institutionName": "전라북도 익산시청",
      "streetAddress": "전라북도 익산시 함열읍 함열8길 2",
      "lotAddress": "전라북도 익산시 함열초교 정문(와리 220-11)",
      "purpose": "어린이보호",
      "cameraNum": 4,
      "pixel": 200,
      "storageDay": 30,
      "installationDate": "2013년 9월",
      "managementNum": "063-859-5406",
      "latitude": 36.079092,
      "longitude": 126.965401,
      "date": "2016-09-13"
    },
    {
      "id": 110,
      "institutionName": "전라북도 익산시청",
      "streetAddress": "전라북도 익산시 삼기면 황금로 523",
      "lotAddress": "전라북도 익산시 삼기초교 정문(간촌리 43-2)",
      "purpose": "어린이보호",
      "cameraNum": 3,
      "pixel": 200,
      "storageDay": 30,
      "installationDate": "2013년 9월",
      "managementNum": "063-859-5406",
      "latitude": 36.019846,
      "longitude": 126.985019,
      "date": "2016-09-13"
    },
    {
      "id": 111,
      "institutionName": "전라북도 익산시청",
      "streetAddress": "전라북도 익산시 금마면 금마4길 38",
      "lotAddress": "전라북도 익산시 금마초교 정문(동고도리 155)",
      "purpose": "어린이보호",
      "cameraNum": 4,
      "pixel": 200,
      "storageDay": 30,
      "installationDate": "2013년 9월",
      "managementNum": "063-859-5406",
      "latitude": 35.991788,
      "longitude": 127.056612,
      "date": "2016-09-13"
    },
    {
      "id": 112,
      "institutionName": "전라북도 익산시청",
      "streetAddress": "전라북도 익산시 여산면 동헌길 14",
      "lotAddress": "전라북도 익산시 여산초교 정문(여산리 490)",
      "purpose": "어린이보호",
      "cameraNum": 4,
      "pixel": 200,
      "storageDay": 30,
      "installationDate": "2013년 9월",
      "managementNum": "063-859-5406",
      "latitude": 36.05916,
      "longitude": 127.087267,
      "date": "2016-09-13"
    },
    {
      "id": 113,
      "institutionName": "전라북도 익산시청",
      "streetAddress": "전라북도 익산시 왕궁면 견우길 3",
      "lotAddress": "전라북도 익산시 왕궁초교 정문(흥암리 150)",
      "purpose": "어린이보호",
      "cameraNum": 3,
      "pixel": 200,
      "storageDay": 30,
      "installationDate": "2013년 9월",
      "managementNum": "063-859-5406",
      "latitude": 35.966421,
      "longitude": 127.090388,
      "date": "2016-09-13"
    },
    {
      "id": 114,
      "institutionName": "전라북도 익산시청",
      "streetAddress": "전라북도 익산시 춘포면 춘포로 408",
      "lotAddress": "전라북도 익산시 춘포초교 정문(용연리 811)",
      "purpose": "어린이보호",
      "cameraNum": 3,
      "pixel": 200,
      "storageDay": 30,
      "installationDate": "2013년 9월",
      "managementNum": "063-859-5406",
      "latitude": 35.902449,
      "longitude": 127.011479,
      "date": "2016-09-13"
    },
    {
      "id": 115,
      "institutionName": "전라북도 익산시청",
      "streetAddress": "전라북도 익산시 오산면 오산로 38",
      "lotAddress": "전라북도 익산시 오산초교 정문(오산리 11)",
      "purpose": "어린이보호",
      "cameraNum": 3,
      "pixel": 200,
      "storageDay": 30,
      "installationDate": "2013년 9월",
      "managementNum": "063-859-5406",
      "latitude": 35.942115,
      "longitude": 126.915689,
      "date": "2016-09-13"
    },
    {
      "id": 116,
      "institutionName": "전라북도 익산시청",
      "streetAddress": "전라북도 익산시 오산면 항쟁로 129",
      "lotAddress": "전라북도 익산시 영만초교 정문(오산면 영만리 950-6)",
      "purpose": "어린이보호",
      "cameraNum": 3,
      "pixel": 200,
      "storageDay": 30,
      "installationDate": "2014년 11월",
      "managementNum": "063-859-5406",
      "latitude": 35.960086,
      "longitude": 126.906384,
      "date": "2016-09-13"
    },
    {
      "id": 117,
      "institutionName": "전라북도 익산시청",
      "streetAddress": "전라북도 익산시 오산면 항쟁로 129",
      "lotAddress": "전라북도 익산시 영만초교 후문(오산면 영만리 950-6)",
      "purpose": "어린이보호",
      "cameraNum": 3,
      "pixel": 200,
      "storageDay": 30,
      "installationDate": "2014년 11월",
      "managementNum": "063-859-5406",
      "latitude": 35.960086,
      "longitude": 126.906384,
      "date": "2016-09-13"
    },
    {
      "id": 118,
      "institutionName": "전라북도 익산시청",
      "streetAddress": "",
      "lotAddress": "전라북도 익산시 왕북초교(왕궁면 동용리 647-2)",
      "purpose": "어린이보호",
      "cameraNum": 3,
      "pixel": 200,
      "storageDay": 30,
      "installationDate": "2014년 11월",
      "managementNum": "063-859-5406",
      "latitude": 35.990989,
      "longitude": 127.104096,
      "date": "2016-09-13"
    },
    {
      "id": 119,
      "institutionName": "전라북도 익산시청",
      "streetAddress": "",
      "lotAddress": "전라북도 익산시 황등초교(황등면 황등리 725)",
      "purpose": "어린이보호",
      "cameraNum": 3,
      "pixel": 200,
      "storageDay": 30,
      "installationDate": "2014년 11월",
      "managementNum": "063-859-5406",
      "latitude": 36.009595,
      "longitude": 126.945224,
      "date": "2016-09-13"
    },
    {
      "id": 120,
      "institutionName": "전라북도 익산시청",
      "streetAddress": "전라북도 익산시 춘포면 천서길 221",
      "lotAddress": "전라북도 익산시 천서초교(춘포면 천서리 85-2)",
      "purpose": "어린이보호",
      "cameraNum": 3,
      "pixel": 200,
      "storageDay": 30,
      "installationDate": "2014년 11월",
      "managementNum": "063-859-5406",
      "latitude": 35.945972,
      "longitude": 127.036078,
      "date": "2016-09-13"
    },
    {
      "id": 121,
      "institutionName": "전라북도 익산시청",
      "streetAddress": "전라북도 익산시 금마면 용순길 243",
      "lotAddress": "전라북도 익산시 미륵초교(금마면 용순리 645-1)",
      "purpose": "어린이보호",
      "cameraNum": 3,
      "pixel": 200,
      "storageDay": 30,
      "installationDate": "2014년 11월",
      "managementNum": "063-859-5406",
      "latitude": 36.001965,
      "longitude": 127.022442,
      "date": "2016-09-13"
    },
    {
      "id": 122,
      "institutionName": "전라북도 익산시청",
      "streetAddress": "전라북도 익산시 망성면 신작길 17-5",
      "lotAddress": "전라북도 익산시 성북초교(망성면 신작리 868)",
      "purpose": "어린이보호",
      "cameraNum": 3,
      "pixel": 200,
      "storageDay": 30,
      "installationDate": "2014년 11월",
      "managementNum": "063-859-5406",
      "latitude": 36.146537,
      "longitude": 127.008481,
      "date": "2016-09-13"
    },
    {
      "id": 123,
      "institutionName": "전라북도 익산시청",
      "streetAddress": "전라북도 익산시 용동면 흥왕1길 17",
      "lotAddress": "전라북도 익산시 흥왕초교(용동면 흥왕리 221)",
      "purpose": "어린이보호",
      "cameraNum": 3,
      "pixel": 200,
      "storageDay": 30,
      "installationDate": "2014년 11월",
      "managementNum": "063-859-5406",
      "latitude": 36.105028,
      "longitude": 126.996848,
      "date": "2016-09-13"
    },
    {
      "id": 124,
      "institutionName": "전라북도 익산시청",
      "streetAddress": "전라북도 익산시 낭산면 우신길 142",
      "lotAddress": "전라북도 익산시 낭산초교(낭산면 호암리 318-2)",
      "purpose": "어린이보호",
      "cameraNum": 3,
      "pixel": 200,
      "storageDay": 30,
      "installationDate": "2014년 11월",
      "managementNum": "063-859-5406",
      "latitude": 36.066961,
      "longitude": 127.015096,
      "date": "2016-09-13"
    },
    {
      "id": 125,
      "institutionName": "전라북도 익산시청",
      "streetAddress": "전라북도 익산시 망성면 여강로 903",
      "lotAddress": "전라북도 익산시 망성초교(망성면 장선리 136-1)",
      "purpose": "어린이보호",
      "cameraNum": 3,
      "pixel": 200,
      "storageDay": 30,
      "installationDate": "2014년 11월",
      "managementNum": "063-859-5406",
      "latitude": 36.121157,
      "longitude": 127.029705,
      "date": "2016-09-13"
    },
    {
      "id": 126,
      "institutionName": "전라북도 익산시청",
      "streetAddress": "전라북도 익산시 웅포면 강변로 10-1",
      "lotAddress": "전라북도 익산시 웅포초교(웅포면 웅포리 383)",
      "purpose": "어린이보호",
      "cameraNum": 3,
      "pixel": 200,
      "storageDay": 30,
      "installationDate": "2014년 11월",
      "managementNum": "063-859-5406",
      "latitude": 36.064757,
      "longitude": 126.878225,
      "date": "2016-09-13"
    },
    {
      "id": 127,
      "institutionName": "전라북도 익산시청",
      "streetAddress": "전라북도 익산시 낭산면 하맹길 183",
      "lotAddress": "전라북도 익산시 용성초교(낭산면 구평리 598-1)",
      "purpose": "어린이보호",
      "cameraNum": 3,
      "pixel": 200,
      "storageDay": 30,
      "installationDate": "2014년 11월",
      "managementNum": "063-859-5406",
      "latitude": 36.056304,
      "longitude": 126.999654,
      "date": "2016-09-13"
    },
    {
      "id": 128,
      "institutionName": "전라북도 익산시청",
      "streetAddress": "전라북도 익산시 용안면 용안교동1길 6-1",
      "lotAddress": "전라북도 익산시 용안초교(용안면 교동리 250)",
      "purpose": "어린이보호",
      "cameraNum": 3,
      "pixel": 200,
      "storageDay": 30,
      "installationDate": "2014년 11월",
      "managementNum": "063-859-5406",
      "latitude": 36.120685,
      "longitude": 126.954125,
      "date": "2016-09-13"
    },
    {
      "id": 129,
      "institutionName": "전라북도 익산시청",
      "streetAddress": "전라북도 익산시 삼기면 진북로 267",
      "lotAddress": "전라북도 익산시 석불초교(삼기면 연동리 643-2)",
      "purpose": "어린이보호",
      "cameraNum": 3,
      "pixel": 200,
      "storageDay": 30,
      "installationDate": "2014년 11월",
      "managementNum": "063-859-5406",
      "latitude": 36.030264,
      "longitude": 127.006662,
      "date": "2016-09-13"
    },
    {
      "id": 130,
      "institutionName": "전라북도 익산시청",
      "streetAddress": "전라북도 익산시 왕궁면 학호길 12",
      "lotAddress": "전라북도 익산시 왕궁남초교(왕궁면 온수리 202-4)",
      "purpose": "어린이보호",
      "cameraNum": 3,
      "pixel": 200,
      "storageDay": 30,
      "installationDate": "2014년 11월",
      "managementNum": "063-859-5406",
      "latitude": 35.927083,
      "longitude": 127.075375,
      "date": "2016-09-13"
    },
    {
      "id": 131,
      "institutionName": "전라북도 익산시청",
      "streetAddress": "",
      "lotAddress": "전라북도 익산시 오산남초교(오산면 남전리 713)",
      "purpose": "어린이보호",
      "cameraNum": 3,
      "pixel": 200,
      "storageDay": 30,
      "installationDate": "2014년 11월",
      "managementNum": "063-859-5406",
      "latitude": 35.928559,
      "longitude": 126.892925,
      "date": "2016-09-13"
    },
    {
      "id": 132,
      "institutionName": "전라북도 익산시청",
      "streetAddress": "전라북도 익산시 황등면 용산로 193",
      "lotAddress": "전라북도 익산시 용산초교(황등면 죽촌리 27-5)",
      "purpose": "어린이보호",
      "cameraNum": 3,
      "pixel": 200,
      "storageDay": 30,
      "installationDate": "2014년 11월",
      "managementNum": "063-859-5406",
      "latitude": 36.056344,
      "longitude": 126.999579,
      "date": "2016-09-13"
    },
    {
      "id": 133,
      "institutionName": "전라북도 익산시청",
      "streetAddress": "전라북도 익산시 용안면 용북로 81",
      "lotAddress": "전라북도 익산시 용북초교(용안면 법성리 375-3)",
      "purpose": "어린이보호",
      "cameraNum": 3,
      "pixel": 200,
      "storageDay": 30,
      "installationDate": "2014년 11월",
      "managementNum": "063-859-5406",
      "latitude": 36.134655,
      "longitude": 126.947104,
      "date": "2016-09-13"
    },
    {
      "id": 134,
      "institutionName": "전라북도 익산시청",
      "streetAddress": "전라북도 익산시 덕기길 77(덕기동)",
      "lotAddress": "전라북도 익산시 전북혜화학교(덕기동 751-7)",
      "purpose": "어린이보호",
      "cameraNum": 3,
      "pixel": 200,
      "storageDay": 30,
      "installationDate": "2014년 11월",
      "managementNum": "063-859-5406",
      "latitude": 35.966725,
      "longitude": 127.030156,
      "date": "2016-09-13"
    },
    {
      "id": 135,
      "institutionName": "전라북도 익산시청",
      "streetAddress": "",
      "lotAddress": "전라북도 익산시 전북맹아학교(석암동 41-77)",
      "purpose": "어린이보호",
      "cameraNum": 3,
      "pixel": 200,
      "storageDay": 30,
      "installationDate": "2014년 11월",
      "managementNum": "063-859-5406",
      "latitude": 35.942416,
      "longitude": 127.005338,
      "date": "2016-09-13"
    },
    {
      "id": 136,
      "institutionName": "전라북도 익산시청",
      "streetAddress": "",
      "lotAddress": "전라북도 익산시 금성초교(성당면 두동리 701-1)",
      "purpose": "어린이보호",
      "cameraNum": 3,
      "pixel": 200,
      "storageDay": 30,
      "installationDate": "2015년 8월",
      "managementNum": "063-859-5406",
      "latitude": 36.122218,
      "longitude": 126.920303,
      "date": "2016-09-13"
    },
    {
      "id": 137,
      "institutionName": "전라북도 익산시청",
      "streetAddress": "",
      "lotAddress": "전라북도 익산시 용남초교(용안면 동지산리 76-7)",
      "purpose": "어린이보호",
      "cameraNum": 3,
      "pixel": 200,
      "storageDay": 30,
      "installationDate": "2015년 8월",
      "managementNum": "063-859-5406",
      "latitude": 36.095598,
      "longitude": 126.962459,
      "date": "2016-09-13"
    },
    {
      "id": 138,
      "institutionName": "전라북도 익산시청",
      "streetAddress": "",
      "lotAddress": "전라북도 익산시 다송초교(함열읍 다송리 478-6)",
      "purpose": "어린이보호",
      "cameraNum": 3,
      "pixel": 200,
      "storageDay": 30,
      "installationDate": "2015년 8월",
      "managementNum": "063-859-5406",
      "latitude": 36.041069,
      "longitude": 126.955395,
      "date": "2016-09-13"
    },
    {
      "id": 139,
      "institutionName": "전라북도 익산시청",
      "streetAddress": "전라북도 익산시 하나로13길 19(영등동)",
      "lotAddress": "전라북도 익산시 아이캔몬테소리유치원(영등동 846-4)",
      "purpose": "어린이보호",
      "cameraNum": 3,
      "pixel": 200,
      "storageDay": 30,
      "installationDate": "2015년 8월",
      "managementNum": "063-859-5406",
      "latitude": 35.96027,
      "longitude": 126.979128,
      "date": "2016-09-13"
    },
    {
      "id": 140,
      "institutionName": "전라북도 익산시청",
      "streetAddress": "",
      "lotAddress": "전라북도 익산시 비사벌유치원(영등동 683-1)",
      "purpose": "어린이보호",
      "cameraNum": 3,
      "pixel": 200,
      "storageDay": 30,
      "installationDate": "2015년 8월",
      "managementNum": "063-859-5406",
      "latitude": 35.955604,
      "longitude": 126.974856,
      "date": "2016-09-13"
    },
    {
      "id": 141,
      "institutionName": "전라북도 익산시청",
      "streetAddress": "",
      "lotAddress": "전라북도 익산시 신광유치원(마동 129-34)",
      "purpose": "어린이보호",
      "cameraNum": 3,
      "pixel": 200,
      "storageDay": 30,
      "installationDate": "2015년 8월",
      "managementNum": "063-859-5406",
      "latitude": 35.939174,
      "longitude": 126.962516,
      "date": "2016-09-13"
    },
    {
      "id": 142,
      "institutionName": "전라북도 익산시청",
      "streetAddress": "",
      "lotAddress": "전라북도 익산시 성심유치원(창인동1가 235-2)",
      "purpose": "어린이보호",
      "cameraNum": 3,
      "pixel": 200,
      "storageDay": 30,
      "installationDate": "2015년 8월",
      "managementNum": "063-859-5406",
      "latitude": 35.940633,
      "longitude": 126.954306,
      "date": "2016-09-13"
    },
    {
      "id": 143,
      "institutionName": "전라북도 익산시청",
      "streetAddress": "전북 익산시 신기1길 18",
      "lotAddress": "전라북도 익산시 다솜유치원(모현동2가 502-18)",
      "purpose": "어린이보호",
      "cameraNum": 3,
      "pixel": 200,
      "storageDay": 30,
      "installationDate": "2015년 8월",
      "managementNum": "063-859-5406",
      "latitude": 35.960831,
      "longitude": 126.936351,
      "date": "2016-09-13"
    },
    {
      "id": 144,
      "institutionName": "전라북도 익산시청",
      "streetAddress": "",
      "lotAddress": "전라북도 익산시 벧엘유치원(모현동1가 14-20)",
      "purpose": "어린이보호",
      "cameraNum": 3,
      "pixel": 200,
      "storageDay": 30,
      "installationDate": "2015년 8월",
      "managementNum": "063-859-5406",
      "latitude": 35.954372,
      "longitude": 126.950628,
      "date": "2016-09-13"
    },
    {
      "id": 145,
      "institutionName": "전라북도 익산시청",
      "streetAddress": "",
      "lotAddress": "전라북도 익산시 한서유치원(모현동1가 67-150)",
      "purpose": "어린이보호",
      "cameraNum": 3,
      "pixel": 200,
      "storageDay": 30,
      "installationDate": "2015년 8월",
      "managementNum": "063-859-5406",
      "latitude": 35.952693,
      "longitude": 126.944748,
      "date": "2016-09-13"
    },
    {
      "id": 146,
      "institutionName": "전라북도 익산시청",
      "streetAddress": "",
      "lotAddress": "전라북도 익산시 예원유치원(동산동 154)",
      "purpose": "어린이보호",
      "cameraNum": 3,
      "pixel": 200,
      "storageDay": 30,
      "installationDate": "2015년 8월",
      "managementNum": "063-859-5406",
      "latitude": 35.931882,
      "longitude": 126.968832,
      "date": "2016-09-13"
    },
    {
      "id": 147,
      "institutionName": "전라북도 익산시청",
      "streetAddress": "",
      "lotAddress": "전라북도 익산시 크레듀어린이집(영등동 256-108)",
      "purpose": "어린이보호",
      "cameraNum": 3,
      "pixel": 200,
      "storageDay": 30,
      "installationDate": "2015년 8월",
      "managementNum": "063-859-5406",
      "latitude": 35.949545,
      "longitude": 126.971305,
      "date": "2016-09-13"
    },
    {
      "id": 148,
      "institutionName": "전라북도 익산시청",
      "streetAddress": "",
      "lotAddress": "전라북도 익산시 쏠티어린이집(모현동1가 5-1)",
      "purpose": "어린이보호",
      "cameraNum": 3,
      "pixel": 200,
      "storageDay": 30,
      "installationDate": "2015년 8월",
      "managementNum": "063-859-5406",
      "latitude": 35.952369,
      "longitude": 126.950789,
      "date": "2016-09-13"
    },
    {
      "id": 149,
      "institutionName": "전라북도 익산시청",
      "streetAddress": "",
      "lotAddress": "전라북도 익산시 미래어린이집(동산동 84-1)",
      "purpose": "어린이보호",
      "cameraNum": 3,
      "pixel": 200,
      "storageDay": 30,
      "installationDate": "2015년 8월",
      "managementNum": "063-859-5406",
      "latitude": 35.929701,
      "longitude": 126.971336,
      "date": "2016-09-13"
    },
    {
      "id": 150,
      "institutionName": "전라북도 익산시청",
      "streetAddress": "",
      "lotAddress": "전라북도 익산시 아이미소어린이집(금강동 산70-4)",
      "purpose": "어린이보호",
      "cameraNum": 3,
      "pixel": 200,
      "storageDay": 30,
      "installationDate": "2015년 8월",
      "managementNum": "063-859-5406",
      "latitude": 35.13038,
      "longitude": 126.861546,
      "date": "2016-09-13"
    },
    {
      "id": 151,
      "institutionName": "전라북도 익산시청",
      "streetAddress": "전라북도 익산시 현영길 40-36(만석동)",
      "lotAddress": "전라북도 익산시 동산자연어린이집(만석동 34-1)",
      "purpose": "어린이보호",
      "cameraNum": 3,
      "pixel": 200,
      "storageDay": 30,
      "installationDate": "2015년 8월",
      "managementNum": "063-859-5406",
      "latitude": 35.964697,
      "longitude": 126.937245,
      "date": "2016-09-13"
    },
    {
      "id": 152,
      "institutionName": "전라북도 익산시청",
      "streetAddress": "전라북도 익산시 평동로 751-1(동산동)",
      "lotAddress": "전라북도 익산시 동산동 637-13 동광유치원",
      "purpose": "어린이보호",
      "cameraNum": 3,
      "pixel": 200,
      "storageDay": 30,
      "installationDate": "2016년 5월",
      "managementNum": "063-859-5406",
      "latitude": 35.928343,
      "longitude": 126.96138,
      "date": "2016-09-13"
    },
    {
      "id": 153,
      "institutionName": "전라북도 익산시청",
      "streetAddress": "전라북도 익산시 동서로49길 23-19(영등동)",
      "lotAddress": "전라북도 익산시 영등동 773-23 천광유치원",
      "purpose": "어린이보호",
      "cameraNum": 3,
      "pixel": 200,
      "storageDay": 30,
      "installationDate": "2016년 5월",
      "managementNum": "063-859-5406",
      "latitude": 35.955045,
      "longitude": 126.978179,
      "date": "2016-09-13"
    },
    {
      "id": 154,
      "institutionName": "전라북도 익산시청",
      "streetAddress": "전라북도 익산시 인북로40길 2(남중동)",
      "lotAddress": "전라북도 익산시 남중동 86-79 이리별나라어린이집",
      "purpose": "어린이보호",
      "cameraNum": 3,
      "pixel": 200,
      "storageDay": 30,
      "installationDate": "2016년 5월",
      "managementNum": "063-859-5406",
      "latitude": 35.946759,
      "longitude": 126.959201,
      "date": "2016-09-13"
    },
    {
      "id": 155,
      "institutionName": "전라북도 익산시청",
      "streetAddress": "전라북도 익산시 선화로65길 12-5(어양동)",
      "lotAddress": "전라북도 익산시 어양동 32 파란나라어린이집",
      "purpose": "어린이보호",
      "cameraNum": 3,
      "pixel": 200,
      "storageDay": 30,
      "installationDate": "2016년 5월",
      "managementNum": "063-859-5406",
      "latitude": 35.950149,
      "longitude": 126.990868,
      "date": "2016-09-13"
    },
    {
      "id": 156,
      "institutionName": "전라북도 익산시청",
      "streetAddress": "전북 익산시 주현로2길 10",
      "lotAddress": "전라북도 익산시 인화동 2가 39-1 천일어린이집",
      "purpose": "어린이보호",
      "cameraNum": 3,
      "pixel": 200,
      "storageDay": 30,
      "installationDate": "2016년 5월",
      "managementNum": "063-859-5406",
      "latitude": 35.931898,
      "longitude": 126.956461,
      "date": "2016-09-13"
    },
    {
      "id": 157,
      "institutionName": "전라북도 익산시청",
      "streetAddress": "전라북도 익산시 배산로 157(모현동1가)",
      "lotAddress": "전라북도 익산시 모현동 1가 541-10 열린나라어린이집",
      "purpose": "어린이보호",
      "cameraNum": 3,
      "pixel": 200,
      "storageDay": 30,
      "installationDate": "2016년 5월",
      "managementNum": "063-859-5406",
      "latitude": 35.951613,
      "longitude": 126.940741,
      "date": "2016-09-13"
    },
    {
      "id": 158,
      "institutionName": "전라북도 익산시청",
      "streetAddress": "전라북도 익산시 학곤로 66(송학동)",
      "lotAddress": "전라북도 익산시 송학동 141-3 익산삼성어린이집",
      "purpose": "어린이보호",
      "cameraNum": 3,
      "pixel": 200,
      "storageDay": 30,
      "installationDate": "2016년 5월",
      "managementNum": "063-859-5406",
      "latitude": 35.937864,
      "longitude": 126.939228,
      "date": "2016-09-13"
    },
    {
      "id": 159,
      "institutionName": "전라북도 익산시청",
      "streetAddress": "",
      "lotAddress": "전라북도 익산시 석암동 27-1 아이들세상어린이집",
      "purpose": "어린이보호",
      "cameraNum": 3,
      "pixel": 200,
      "storageDay": 30,
      "installationDate": "2016년 5월",
      "managementNum": "063-859-5406",
      "latitude": 35.938153,
      "longitude": 127.011375,
      "date": "2016-09-13"
    },
    {
      "id": 160,
      "institutionName": "전라북도 익산시청",
      "streetAddress": "전북 익산시 무왕로19길 36-1",
      "lotAddress": "전라북도 익산시 부송동 677-20 샘물선교어린이집",
      "purpose": "어린이보호",
      "cameraNum": 3,
      "pixel": 200,
      "storageDay": 30,
      "installationDate": "2016년 5월",
      "managementNum": "063-859-5406",
      "latitude": 35.962279,
      "longitude": 126.985279,
      "date": "2016-09-13"
    },
    {
      "id": 161,
      "institutionName": "전라북도 익산시청",
      "streetAddress": "전라북도 익산시 선화로 876(부송동)",
      "lotAddress": "전라북도 익산시 부송동 132-27 부송삼성어린이집",
      "purpose": "어린이보호",
      "cameraNum": 3,
      "pixel": 200,
      "storageDay": 30,
      "installationDate": "2016년 5월",
      "managementNum": "063-859-5406",
      "latitude": 35.974183,
      "longitude": 126.998416,
      "date": "2016-09-13"
    },
    {
      "id": 162,
      "institutionName": "전라북도 익산시청",
      "streetAddress": "전라북도 익산시 중앙로5길 13-2(창인동1가)",
      "lotAddress": "전라북도 익산시 창인동 150 우리은행 앞 사거리",
      "purpose": "생활방범용",
      "cameraNum": 2,
      "pixel": 200,
      "storageDay": 30,
      "installationDate": "2013년 8월",
      "managementNum": "063-859-5406",
      "latitude": 35.940117,
      "longitude": 126.951228,
      "date": "2016-09-13"
    },
    {
      "id": 163,
      "institutionName": "전라북도 익산시청",
      "streetAddress": "",
      "lotAddress": "전라북도 익산시 어양동 645-1 청소년쉼터 공원 내",
      "purpose": "방범용",
      "cameraNum": 2,
      "pixel": 200,
      "storageDay": 30,
      "installationDate": "2013년 8월",
      "managementNum": "063-859-5406",
      "latitude": 35.957345,
      "longitude": 126.979229,
      "date": "2016-09-13"
    },
    {
      "id": 164,
      "institutionName": "전라북도 익산시청",
      "streetAddress": "",
      "lotAddress": "전라북도 익산시 신동 599-1 대학로 벌집삼겹살",
      "purpose": "방범용",
      "cameraNum": 2,
      "pixel": 200,
      "storageDay": 30,
      "installationDate": "2013년 8월",
      "managementNum": "063-859-5406",
      "latitude": 35.96193,
      "longitude": 126.955819,
      "date": "2016-09-13"
    },
    {
      "id": 165,
      "institutionName": "전라북도 익산시청",
      "streetAddress": "전라북도 익산시 동천로7길 31(동산동)",
      "lotAddress": "전라북도 익산시 동산동 158-15 삼호아파트 앞",
      "purpose": "방범용",
      "cameraNum": 2,
      "pixel": 200,
      "storageDay": 30,
      "installationDate": "2013년 8월",
      "managementNum": "063-859-5406",
      "latitude": 35.932541,
      "longitude": 126.969245,
      "date": "2016-09-13"
    },
    {
      "id": 166,
      "institutionName": "전라북도 익산시청",
      "streetAddress": "전라북도 익산시 약촌로 252(영등동)",
      "lotAddress": "전라북도 익산시 영등동 769 근린공원(골든캐슬 옆)",
      "purpose": "방범용",
      "cameraNum": 2,
      "pixel": 200,
      "storageDay": 30,
      "installationDate": "2013년 8월",
      "managementNum": "063-859-5406",
      "latitude": 35.957141,
      "longitude": 126.973887,
      "date": "2016-09-13"
    },
    {
      "id": 167,
      "institutionName": "전라북도 익산시청",
      "streetAddress": "",
      "lotAddress": "전라북도 익산시 신동 839 태양불고기 사거리",
      "purpose": "방범용",
      "cameraNum": 2,
      "pixel": 200,
      "storageDay": 30,
      "installationDate": "2013년 8월",
      "managementNum": "063-859-5406",
      "latitude": 35.961098,
      "longitude": 126.959549,
      "date": "2016-09-13"
    },
    {
      "id": 168,
      "institutionName": "전라북도 익산시청",
      "streetAddress": "",
      "lotAddress": "전라북도 익산시 남중동 34-2 치안센터 사거리",
      "purpose": "방범용",
      "cameraNum": 2,
      "pixel": 200,
      "storageDay": 30,
      "installationDate": "2015년 12월",
      "managementNum": "063-859-5406",
      "latitude": 35.952628,
      "longitude": 126.957031,
      "date": "2016-09-13"
    },
    {
      "id": 169,
      "institutionName": "전라북도 익산시청",
      "streetAddress": "",
      "lotAddress": "전라북도 익산시 인화동 1가 194 샴푸나이트 사거리",
      "purpose": "방범용",
      "cameraNum": 2,
      "pixel": 200,
      "storageDay": 30,
      "installationDate": "2015년 12월",
      "managementNum": "063-859-5406",
      "latitude": 35.931531,
      "longitude": 126.948099,
      "date": "2016-09-13"
    },
    {
      "id": 170,
      "institutionName": "전라북도 익산시청",
      "streetAddress": "",
      "lotAddress": "전라북도 익산시 동산동 1069  세경아파트1차 뒤",
      "purpose": "방범용",
      "cameraNum": 2,
      "pixel": 200,
      "storageDay": 30,
      "installationDate": "2013년 12월",
      "managementNum": "063-859-5406",
      "latitude": 35.934235,
      "longitude": 126.963865,
      "date": "2016-09-13"
    },
    {
      "id": 171,
      "institutionName": "전라북도 익산시청",
      "streetAddress": "전라북도 익산시 하나로10길 57-13(부송동)",
      "lotAddress": "전라북도 익산시 부송동 1079 부송공원(하나리움 앞)",
      "purpose": "방범용",
      "cameraNum": 2,
      "pixel": 200,
      "storageDay": 30,
      "installationDate": "2013년 12월",
      "managementNum": "063-859-5406",
      "latitude": 35.961976,
      "longitude": 126.986907,
      "date": "2016-09-13"
    },
    {
      "id": 172,
      "institutionName": "전라북도 익산시청",
      "streetAddress": "",
      "lotAddress": "전라북도 익산시 모현동 1가 272-8 현대2차 입구 삼거리",
      "purpose": "방범용",
      "cameraNum": 2,
      "pixel": 200,
      "storageDay": 30,
      "installationDate": "2015년 12월",
      "managementNum": "063-859-5406",
      "latitude": 35.945895,
      "longitude": 126.941297,
      "date": "2016-09-13"
    },
    {
      "id": 173,
      "institutionName": "전라북도 익산시청",
      "streetAddress": "",
      "lotAddress": "전라북도 익산시 영등동 861 진자동차병원 사거리",
      "purpose": "방범용",
      "cameraNum": 2,
      "pixel": 200,
      "storageDay": 30,
      "installationDate": "2015년 5월",
      "managementNum": "063-859-5406",
      "latitude": 35.963246,
      "longitude": 126.972031,
      "date": "2016-09-13"
    },
    {
      "id": 174,
      "institutionName": "전라북도 익산시청",
      "streetAddress": "전라북도 익산시 익산대로15길 17-11(모현동1가)",
      "lotAddress": "전라북도 익산시 모현동 1가 99-9 이화육교",
      "purpose": "방범용",
      "cameraNum": 2,
      "pixel": 200,
      "storageDay": 30,
      "installationDate": "2013년 12월",
      "managementNum": "063-859-5406",
      "latitude": 35.95102,
      "longitude": 126.949619,
      "date": "2016-09-13"
    },
    {
      "id": 175,
      "institutionName": "전라북도 익산시청",
      "streetAddress": "",
      "lotAddress": "전라북도 익산시 남중동 549 문화연립 사거리",
      "purpose": "방범용",
      "cameraNum": 2,
      "pixel": 200,
      "storageDay": 30,
      "installationDate": "2015년 12월",
      "managementNum": "063-859-5406",
      "latitude": 35.955862,
      "longitude": 126.958488,
      "date": "2016-09-13"
    },
    {
      "id": 176,
      "institutionName": "전라북도 익산시청",
      "streetAddress": "",
      "lotAddress": "전라북도 익산시 영등동 854 YMCA 앞 공원 사거리",
      "purpose": "방범용",
      "cameraNum": 2,
      "pixel": 200,
      "storageDay": 30,
      "installationDate": "2015년 12월",
      "managementNum": "063-859-5406",
      "latitude": 35.959866,
      "longitude": 126.980401,
      "date": "2016-09-13"
    },
    {
      "id": 177,
      "institutionName": "전라북도 익산시청",
      "streetAddress": "",
      "lotAddress": "전라북도 익산시 부송동 1041 참마음유치원 사거리",
      "purpose": "방범용",
      "cameraNum": 2,
      "pixel": 200,
      "storageDay": 30,
      "installationDate": "2015년 12월",
      "managementNum": "063-859-5406",
      "latitude": 35.954819,
      "longitude": 126.992071,
      "date": "2016-09-13"
    },
    {
      "id": 178,
      "institutionName": "전라북도 익산시청",
      "streetAddress": "",
      "lotAddress": "전라북도 익산시 마동 375 시영아파트 입구 사거리",
      "purpose": "방범용",
      "cameraNum": 2,
      "pixel": 200,
      "storageDay": 30,
      "installationDate": "2015년 12월",
      "managementNum": "063-859-5406",
      "latitude": 35.936728,
      "longitude": 126.966401,
      "date": "2016-09-13"
    },
    {
      "id": 179,
      "institutionName": "전라북도 익산시청",
      "streetAddress": "",
      "lotAddress": "전라북도 익산시 팔봉동 313-1 기안아파트 입구",
      "purpose": "방범용",
      "cameraNum": 2,
      "pixel": 200,
      "storageDay": 30,
      "installationDate": "2015년 12월",
      "managementNum": "063-859-5406",
      "latitude": 35.965666,
      "longitude": 127.015464,
      "date": "2016-09-13"
    },
    {
      "id": 180,
      "institutionName": "전라북도 익산시청",
      "streetAddress": "전라북도 익산시 익산대로68길 30(신동)",
      "lotAddress": "전라북도 익산시 신동 795-13 그린쇼핑 앞",
      "purpose": "방범용",
      "cameraNum": 2,
      "pixel": 200,
      "storageDay": 30,
      "installationDate": "2016년 11월",
      "managementNum": "063-859-5406",
      "latitude": 35.96244,
      "longitude": 126.95659,
      "date": "2016-09-13"
    },
    {
      "id": 181,
      "institutionName": "전라북도 익산시청",
      "streetAddress": "전라북도 익산시 동서로63길 43(어양동)",
      "lotAddress": "전라북도 익산시 어양동 661-1 주민센터 앞",
      "purpose": "방범용",
      "cameraNum": 2,
      "pixel": 200,
      "storageDay": 30,
      "installationDate": "2016년 11월",
      "managementNum": "063-859-5406",
      "latitude": 35.955333,
      "longitude": 126.984339,
      "date": "2016-09-13"
    },
    {
      "id": 182,
      "institutionName": "전라북도 익산시청",
      "streetAddress": "전라북도 익산시 고봉로28길 12(영등동)",
      "lotAddress": "전라북도 익산시 영등동 764-1 대장군 앞 사거리",
      "purpose": "방범용",
      "cameraNum": 2,
      "pixel": 200,
      "storageDay": 30,
      "installationDate": "2016년 11월",
      "managementNum": "063-859-5406",
      "latitude": 35.955021,
      "longitude": 126.971139,
      "date": "2016-09-13"
    },
    {
      "id": 183,
      "institutionName": "전라북도 익산시청",
      "streetAddress": "",
      "lotAddress": "전라북도 익산시 창인동2가 1-603 제일주차장",
      "purpose": "방범용",
      "cameraNum": 2,
      "pixel": 200,
      "storageDay": 30,
      "installationDate": "2010년 6월",
      "managementNum": "063-859-5406",
      "latitude": 35.943771,
      "longitude": 126.951528,
      "date": "2016-09-13"
    },
    {
      "id": 184,
      "institutionName": "전라북도 익산시청",
      "streetAddress": "전라북도 익산시 인북로13길 8-1(남중동)",
      "lotAddress": "전라북도 익산시 남중동 529-10 수미용실 앞",
      "purpose": "방범용",
      "cameraNum": 2,
      "pixel": 200,
      "storageDay": 30,
      "installationDate": "2016년 11월",
      "managementNum": "063-859-5406",
      "latitude": 35.955079,
      "longitude": 126.958867,
      "date": "2016-09-13"
    },
    {
      "id": 185,
      "institutionName": "전라북도 익산시청",
      "streetAddress": "전라북도 익산시 선화로59길 33(영등동)",
      "lotAddress": "전라북도 익산시 영등동 255-28 청복슈퍼",
      "purpose": "방범용",
      "cameraNum": 2,
      "pixel": 41,
      "storageDay": 30,
      "installationDate": "2010년 6월",
      "managementNum": "063-859-5406",
      "latitude": 35.947743,
      "longitude": 126.970123,
      "date": "2016-09-13"
    },
    {
      "id": 186,
      "institutionName": "전라북도 익산시청",
      "streetAddress": "전라북도 익산시 인북로62길 41(신동)",
      "lotAddress": "전라북도 익산시 신동 813-15 남성고후문놀이터",
      "purpose": "방범용",
      "cameraNum": 2,
      "pixel": 200,
      "storageDay": 30,
      "installationDate": "2016년 11월",
      "managementNum": "063-859-5406",
      "latitude": 35.95762,
      "longitude": 126.965655,
      "date": "2016-09-13"
    },
    {
      "id": 187,
      "institutionName": "전라북도 익산시청",
      "streetAddress": "",
      "lotAddress": "전라북도 익산시 동산동 588-50세경3차 아파트 앞",
      "purpose": "방범용",
      "cameraNum": 2,
      "pixel": 200,
      "storageDay": 30,
      "installationDate": "2010년 6월",
      "managementNum": "063-859-5406",
      "latitude": 35.926381,
      "longitude": 126.961521,
      "date": "2016-09-13"
    },
    {
      "id": 188,
      "institutionName": "전라북도 익산시청",
      "streetAddress": "",
      "lotAddress": "전라북도 익산시 평화동 53 이일여중 앞",
      "purpose": "방범용",
      "cameraNum": 2,
      "pixel": 200,
      "storageDay": 30,
      "installationDate": "2010년 6월",
      "managementNum": "063-859-5406",
      "latitude": 35.934713,
      "longitude": 126.947728,
      "date": "2016-09-13"
    },
    {
      "id": 189,
      "institutionName": "전라북도 익산시청",
      "streetAddress": "",
      "lotAddress": "전라북도 익산시 남중동 5-10 원불교교당",
      "purpose": "방범용",
      "cameraNum": 2,
      "pixel": 200,
      "storageDay": 30,
      "installationDate": "2016년 11월",
      "managementNum": "063-859-5406",
      "latitude": 35.955437,
      "longitude": 126.956632,
      "date": "2016-09-13"
    },
    {
      "id": 190,
      "institutionName": "전라북도 익산시청",
      "streetAddress": "",
      "lotAddress": "전라북도 익산시 모현동1가 14-31 두부이야기",
      "purpose": "방범용",
      "cameraNum": 2,
      "pixel": 200,
      "storageDay": 30,
      "installationDate": "2011년 1월",
      "managementNum": "063-859-5406",
      "latitude": 35.953871,
      "longitude": 126.951238,
      "date": "2016-09-13"
    },
    {
      "id": 191,
      "institutionName": "전라북도 익산시청",
      "streetAddress": "",
      "lotAddress": "전라북도 익산시 마동 377 원대정신병원 부근",
      "purpose": "방범용",
      "cameraNum": 2,
      "pixel": 200,
      "storageDay": 30,
      "installationDate": "2011년 1월",
      "managementNum": "063-859-5406",
      "latitude": 35.934898,
      "longitude": 126.968078,
      "date": "2016-09-13"
    },
    {
      "id": 192,
      "institutionName": "전라북도 익산시청",
      "streetAddress": "",
      "lotAddress": "전라북도 익산시 송학동 224-97 영광교회 부근",
      "purpose": "방범용",
      "cameraNum": 2,
      "pixel": 200,
      "storageDay": 30,
      "installationDate": "2011년 1월",
      "managementNum": "063-859-5406",
      "latitude": 35.93892,
      "longitude": 126.937126,
      "date": "2016-09-13"
    },
    {
      "id": 193,
      "institutionName": "전라북도 익산시청",
      "streetAddress": "",
      "lotAddress": "전라북도 익산시 모현동1가 260-4 성진교회 부근",
      "purpose": "방범용",
      "cameraNum": 2,
      "pixel": 200,
      "storageDay": 30,
      "installationDate": "2011년 1월",
      "managementNum": "063-859-5406",
      "latitude": 35.944099,
      "longitude": 126.940518,
      "date": "2016-09-13"
    },
    {
      "id": 194,
      "institutionName": "전라북도 익산시청",
      "streetAddress": "",
      "lotAddress": "전라북도 익산시 주현동 8-24 동양화재 부근",
      "purpose": "방범용",
      "cameraNum": 2,
      "pixel": 200,
      "storageDay": 30,
      "installationDate": "2011년 1월",
      "managementNum": "063-859-5406",
      "latitude": 35.938277,
      "longitude": 126.956995,
      "date": "2016-09-13"
    },
    {
      "id": 195,
      "institutionName": "전라북도 익산시청",
      "streetAddress": "",
      "lotAddress": "전라북도 익산시 동산동 1071 울밖교회 부근",
      "purpose": "방범용",
      "cameraNum": 2,
      "pixel": 200,
      "storageDay": 30,
      "installationDate": "2011년 1월",
      "managementNum": "063-859-5406",
      "latitude": 35.930706,
      "longitude": 126.965935,
      "date": "2016-09-13"
    },
    {
      "id": 196,
      "institutionName": "전라북도 익산시청",
      "streetAddress": "전라북도 익산시 인북로3길 13(중앙동3가)",
      "lotAddress": "전라북도 익산시 중앙동3가 68 관음사 부근",
      "purpose": "방범용",
      "cameraNum": 2,
      "pixel": 200,
      "storageDay": 30,
      "installationDate": "2012년 12월",
      "managementNum": "063-859-5406",
      "latitude": 35.94056,
      "longitude": 126.948093,
      "date": "2016-09-13"
    },
    {
      "id": 197,
      "institutionName": "전라북도 익산시청",
      "streetAddress": "전라북도 익산시 선화1로1길 30(마동)",
      "lotAddress": "전라북도 익산시 마동 153-59 예솔어린이집 부근",
      "purpose": "방범용",
      "cameraNum": 2,
      "pixel": 200,
      "storageDay": 30,
      "installationDate": "2012년 12월",
      "managementNum": "063-859-5406",
      "latitude": 35.944917,
      "longitude": 126.965268,
      "date": "2016-09-13"
    },
    {
      "id": 198,
      "institutionName": "전라북도 익산시청",
      "streetAddress": "전라북도 익산시 선화로59길 12-1(영등동)",
      "lotAddress": "전라북도 익산시 영등동 252 청복교회 부근",
      "purpose": "방범용",
      "cameraNum": 2,
      "pixel": 200,
      "storageDay": 30,
      "installationDate": "2012년 12월",
      "managementNum": "063-859-5406",
      "latitude": 35.94777,
      "longitude": 126.970041,
      "date": "2016-09-13"
    },
    {
      "id": 199,
      "institutionName": "전라북도 익산시청",
      "streetAddress": "전라북도 익산시 배산로14길 12-4(모현동1가)",
      "lotAddress": "전라북도 익산시 모현동1가 264-7 모현초교 부근",
      "purpose": "방범용",
      "cameraNum": 2,
      "pixel": 200,
      "storageDay": 30,
      "installationDate": "2012년 12월",
      "managementNum": "063-859-5406",
      "latitude": 35.945298,
      "longitude": 126.939646,
      "date": "2016-09-13"
    },
    {
      "id": 200,
      "institutionName": "전라북도 익산시청",
      "streetAddress": "전라북도 익산시 나룻가신천길 58(인화동2가)",
      "lotAddress": "전라북도 익산시 인화동2가 317 신촌마을 입구",
      "purpose": "방범용",
      "cameraNum": 2,
      "pixel": 200,
      "storageDay": 30,
      "installationDate": "2012년 12월",
      "managementNum": "063-859-5406",
      "latitude": 35.920963,
      "longitude": 126.950403,
      "date": "2016-09-13"
    },
    {
      "id": 201,
      "institutionName": "전라북도 익산시청",
      "streetAddress": "전라북도 익산시 중앙로10길 44(갈산동)",
      "lotAddress": "전라북도 익산시 갈산동 258-4 유명상회 부근",
      "purpose": "방범용",
      "cameraNum": 2,
      "pixel": 200,
      "storageDay": 30,
      "installationDate": "2012년 12월",
      "managementNum": "063-859-5406",
      "latitude": 35.935586,
      "longitude": 126.95384,
      "date": "2016-09-13"
    },
    {
      "id": 202,
      "institutionName": "전라북도 익산시청",
      "streetAddress": "전라북도 익산시 고현로10길 3(모현동1가)",
      "lotAddress": "전라북도 익산시 모현동1가 235-14 공간식당 부근",
      "purpose": "방범용",
      "cameraNum": 2,
      "pixel": 200,
      "storageDay": 30,
      "installationDate": "2013년 8월",
      "managementNum": "063-859-5406",
      "latitude": 35.943132,
      "longitude": 126.943196,
      "date": "2016-09-13"
    },
    {
      "id": 203,
      "institutionName": "전라북도 익산시청",
      "streetAddress": "전라북도 익산시 무왕로9길 63-5(영등동)",
      "lotAddress": "전라북도 익산시 영등동 804-2 대은교회 부근",
      "purpose": "방범용",
      "cameraNum": 2,
      "pixel": 200,
      "storageDay": 30,
      "installationDate": "2013년 8월",
      "managementNum": "063-859-5406",
      "latitude": 35.964008,
      "longitude": 126.972523,
      "date": "2016-09-13"
    },
    {
      "id": 204,
      "institutionName": "전라북도 익산시청",
      "streetAddress": "전라북도 익산시 평동로1길 19(평화동)",
      "lotAddress": "전라북도 익산시 평화동 25-1 평화새마을금고 부근",
      "purpose": "방범용",
      "cameraNum": 2,
      "pixel": 200,
      "storageDay": 30,
      "installationDate": "2013년 8월",
      "managementNum": "063-859-5406",
      "latitude": 35.934643,
      "longitude": 126.945642,
      "date": "2016-09-13"
    },
    {
      "id": 205,
      "institutionName": "전라북도 익산시청",
      "streetAddress": "전라북도 익산시 익산대로1길 6-1(창인동2가)",
      "lotAddress": "전라북도 익산시 창인동2가 1-242 한성농기계 골목",
      "purpose": "방범용",
      "cameraNum": 2,
      "pixel": 200,
      "storageDay": 30,
      "installationDate": "2013년 8월",
      "managementNum": "063-859-5406",
      "latitude": 35.935967,
      "longitude": 126.945338,
      "date": "2016-09-13"
    },
    {
      "id": 206,
      "institutionName": "전라북도 익산시청",
      "streetAddress": "",
      "lotAddress": "전라북도 익산시 마동 139-6 마동주공2차 부근",
      "purpose": "방범용",
      "cameraNum": 2,
      "pixel": 200,
      "storageDay": 30,
      "installationDate": "2013년 8월",
      "managementNum": "063-859-5406",
      "latitude": 35.942935,
      "longitude": 126.966749,
      "date": "2016-09-13"
    },
    {
      "id": 207,
      "institutionName": "전라북도 익산시청",
      "streetAddress": "",
      "lotAddress": "전라북도 익산시 송학동 232-11 현대아파트 뒷골목",
      "purpose": "방범용",
      "cameraNum": 2,
      "pixel": 200,
      "storageDay": 30,
      "installationDate": "2013년 8월",
      "managementNum": "063-859-5406",
      "latitude": 35.941176,
      "longitude": 126.939112,
      "date": "2016-09-13"
    },
    {
      "id": 208,
      "institutionName": "전라북도 익산시청",
      "streetAddress": "",
      "lotAddress": "전라북도 익산시 송학동 202-3 5통 주택가",
      "purpose": "방범용",
      "cameraNum": 2,
      "pixel": 200,
      "storageDay": 30,
      "installationDate": "2013년 8월",
      "managementNum": "063-859-5406",
      "latitude": 35.939848,
      "longitude": 126.93914,
      "date": "2016-09-13"
    },
    {
      "id": 209,
      "institutionName": "전라북도 익산시청",
      "streetAddress": "",
      "lotAddress": "전라북도 익산시 송학동 891 지안리즈아파트 삼거리",
      "purpose": "방범용",
      "cameraNum": 2,
      "pixel": 200,
      "storageDay": 30,
      "installationDate": "2013년 8월",
      "managementNum": "063-859-5406",
      "latitude": 35.940639,
      "longitude": 126.929225,
      "date": "2016-09-13"
    },
    {
      "id": 210,
      "institutionName": "전라북도 익산시청",
      "streetAddress": "",
      "lotAddress": "전라북도 익산시 송학동 338 더샾 아파트 뒤",
      "purpose": "방범용",
      "cameraNum": 2,
      "pixel": 200,
      "storageDay": 30,
      "installationDate": "2013년 8월",
      "managementNum": "063-859-5406",
      "latitude": 35.942316,
      "longitude": 126.931703,
      "date": "2016-09-13"
    },
    {
      "id": 211,
      "institutionName": "전라북도 익산시청",
      "streetAddress": "전라북도 익산시 하나로11길 24-5(영등동)",
      "lotAddress": "전라북도 익산시 영등동 847-4 코리아산전 부근",
      "purpose": "방범용",
      "cameraNum": 2,
      "pixel": 200,
      "storageDay": 30,
      "installationDate": "2013년 8월",
      "managementNum": "063-859-5406",
      "latitude": 35.958707,
      "longitude": 126.978823,
      "date": "2016-09-13"
    },
    {
      "id": 212,
      "institutionName": "전라북도 익산시청",
      "streetAddress": "전라북도 익산시 중앙로10길 18(주현동)",
      "lotAddress": "전라북도 익산시 주현동 56-1 주민자치센터 별관",
      "purpose": "방범용",
      "cameraNum": 2,
      "pixel": 200,
      "storageDay": 30,
      "installationDate": "2013년 8월",
      "managementNum": "063-859-5406",
      "latitude": 35.936856,
      "longitude": 126.956181,
      "date": "2016-09-13"
    },
    {
      "id": 213,
      "institutionName": "전라북도 익산시청",
      "streetAddress": "전라북도 익산시 인북로3길 28(중앙동3가)",
      "lotAddress": "전라북도 익산시 중앙동 3가 36 농협 앞 명가",
      "purpose": "방범용",
      "cameraNum": 2,
      "pixel": 200,
      "storageDay": 30,
      "installationDate": "2013년 12월",
      "managementNum": "063-859-5406",
      "latitude": 35.938666,
      "longitude": 126.950164,
      "date": "2016-09-13"
    },
    {
      "id": 214,
      "institutionName": "전라북도 익산시청",
      "streetAddress": "",
      "lotAddress": "전라북도 익산시 석탄동 984-14 고제마을 입구",
      "purpose": "방범용",
      "cameraNum": 2,
      "pixel": 200,
      "storageDay": 30,
      "installationDate": "2013년 12월",
      "managementNum": "063-859-5406",
      "latitude": 35.917574,
      "longitude": 126.959045,
      "date": "2016-09-13"
    },
    {
      "id": 215,
      "institutionName": "전라북도 익산시청",
      "streetAddress": "",
      "lotAddress": "전라북도 익산시 모현동 2가 697 휴먼시아 5차 뒤",
      "purpose": "방범용",
      "cameraNum": 2,
      "pixel": 200,
      "storageDay": 30,
      "installationDate": "2013년 12월",
      "managementNum": "063-859-5406",
      "latitude": 35.963471,
      "longitude": 126.942531,
      "date": "2016-09-13"
    },
    {
      "id": 216,
      "institutionName": "전라북도 익산시청",
      "streetAddress": "",
      "lotAddress": "전라북도 익산시 목천동 1423-2 우석병원 뒤 고잔마을",
      "purpose": "방범용",
      "cameraNum": 2,
      "pixel": 200,
      "storageDay": 30,
      "installationDate": "2013년 12월",
      "managementNum": "063-859-5406",
      "latitude": 35.920332,
      "longitude": 126.938767,
      "date": "2016-09-13"
    },
    {
      "id": 217,
      "institutionName": "전라북도 익산시청",
      "streetAddress": "전라북도 익산시 동서로43길 16-26(영등동)",
      "lotAddress": "전라북도 익산시 영등동 707-6 소머리국밥",
      "purpose": "방범용",
      "cameraNum": 2,
      "pixel": 200,
      "storageDay": 30,
      "installationDate": "2013년 12월",
      "managementNum": "063-859-5406",
      "latitude": 35.954138,
      "longitude": 126.969882,
      "date": "2016-09-13"
    },
    {
      "id": 218,
      "institutionName": "전라북도 익산시청",
      "streetAddress": "",
      "lotAddress": "전라북도 익산시 주현동 189-8 구슬목경로당 앞",
      "purpose": "방범용",
      "cameraNum": 2,
      "pixel": 200,
      "storageDay": 30,
      "installationDate": "2013년 12월",
      "managementNum": "063-859-5406",
      "latitude": 35.935858,
      "longitude": 126.958226,
      "date": "2016-09-13"
    },
    {
      "id": 219,
      "institutionName": "전라북도 익산시청",
      "streetAddress": "전라북도 익산시 인북로32길 68(마동)",
      "lotAddress": "전라북도 익산시 마동 181-152 건강탕 형제조명 앞",
      "purpose": "방범용",
      "cameraNum": 2,
      "pixel": 200,
      "storageDay": 30,
      "installationDate": "2013년 12월",
      "managementNum": "063-859-5406",
      "latitude": 35.947192,
      "longitude": 126.963859,
      "date": "2016-09-13"
    },
    {
      "id": 220,
      "institutionName": "전라북도 익산시청",
      "streetAddress": "전라북도 익산시 번영로8길 231(평화동)",
      "lotAddress": "전라북도 익산시 평화동 367-3 제일아파트",
      "purpose": "방범용",
      "cameraNum": 2,
      "pixel": 200,
      "storageDay": 30,
      "installationDate": "2013년 12월",
      "managementNum": "063-859-5406",
      "latitude": 35.933052,
      "longitude": 126.94232,
      "date": "2016-09-13"
    },
    {
      "id": 221,
      "institutionName": "전라북도 익산시청",
      "streetAddress": "",
      "lotAddress": "전라북도 익산시 황등면 황등리 181-5 (황등 회전로타리)",
      "purpose": "방범용",
      "cameraNum": 2,
      "pixel": 200,
      "storageDay": 30,
      "installationDate": "2013년 9월",
      "managementNum": "063-859-5406",
      "latitude": 35.992854,
      "longitude": 126.949702,
      "date": "2016-09-13"
    },
    {
      "id": 222,
      "institutionName": "전라북도 익산시청",
      "streetAddress": "전북 익산시 황등면 황등7길 6",
      "lotAddress": "전라북도 익산시 황등면 황등리 1739-84 (황등 곽준석의원앞)",
      "purpose": "방범용",
      "cameraNum": 2,
      "pixel": 200,
      "storageDay": 30,
      "installationDate": "2013년 9월",
      "managementNum": "063-859-5406",
      "latitude": 36.006984,
      "longitude": 126.945323,
      "date": "2016-09-13"
    },
    {
      "id": 223,
      "institutionName": "전라북도 익산시청",
      "streetAddress": "",
      "lotAddress": "전라북도 익산시 황등면 황등리 906-139 (황등 농협 삼거리)",
      "purpose": "방범용",
      "cameraNum": 2,
      "pixel": 200,
      "storageDay": 30,
      "installationDate": "2013년 9월",
      "managementNum": "063-859-5406",
      "latitude": 36.00299,
      "longitude": 126.944413,
      "date": "2016-09-13"
    },
    {
      "id": 224,
      "institutionName": "전라북도 익산시청",
      "streetAddress": "",
      "lotAddress": "전라북도 익산시 황등면 황등리 920-50 (황등시장 사거리)",
      "purpose": "방범용",
      "cameraNum": 2,
      "pixel": 200,
      "storageDay": 30,
      "installationDate": "2013년 9월",
      "managementNum": "063-859-5406",
      "latitude": 36.005549,
      "longitude": 126.944706,
      "date": "2016-09-13"
    },
    {
      "id": 225,
      "institutionName": "전라북도 익산시청",
      "streetAddress": "",
      "lotAddress": "전라북도 익산시 황등면 황등리 635-22 (성일고 사거리)",
      "purpose": "방범용",
      "cameraNum": 2,
      "pixel": 200,
      "storageDay": 30,
      "installationDate": "2013년 9월",
      "managementNum": "063-859-5406",
      "latitude": 36.00883,
      "longitude": 126.947563,
      "date": "2016-09-13"
    },
    {
      "id": 226,
      "institutionName": "전라북도 익산시청",
      "streetAddress": "",
      "lotAddress": "전라북도 익산시 황등면 황등리 산21-1 (태양목재소 삼거리)",
      "purpose": "방범용",
      "cameraNum": 2,
      "pixel": 200,
      "storageDay": 30,
      "installationDate": "2013년 9월",
      "managementNum": "063-859-5406",
      "latitude": 36.012383,
      "longitude": 126.942425,
      "date": "2016-09-13"
    },
    {
      "id": 227,
      "institutionName": "전라북도 익산시청",
      "streetAddress": "전북 익산시 황등면 황등중앙로 100-23",
      "lotAddress": "전라북도 익산시 황등면 황등리 999 (제자교회)",
      "purpose": "방범용",
      "cameraNum": 2,
      "pixel": 200,
      "storageDay": 30,
      "installationDate": "2013년 9월",
      "managementNum": "063-859-5406",
      "latitude": 35.996674,
      "longitude": 126.944702,
      "date": "2016-09-13"
    },
    {
      "id": 228,
      "institutionName": "전라북도 익산시청",
      "streetAddress": "전라북도 익산시 마한로 74(영등동)",
      "lotAddress": "전라북도 익산시 영등동 802-2 가원빌",
      "purpose": "방범용",
      "cameraNum": 1,
      "pixel": 200,
      "storageDay": 30,
      "installationDate": "2013년 12월",
      "managementNum": "063-859-5406",
      "latitude": 35.964338,
      "longitude": 126.972211,
      "date": "2016-09-13"
    },
    {
      "id": 229,
      "institutionName": "전라북도 익산시청",
      "streetAddress": "전라북도 익산시 익산대로60길 4(신동)",
      "lotAddress": "전라북도 익산시 신동 819-24 성모연립",
      "purpose": "방범용",
      "cameraNum": 1,
      "pixel": 200,
      "storageDay": 30,
      "installationDate": "2013년 12월",
      "managementNum": "063-859-5406",
      "latitude": 35.957967,
      "longitude": 126.959147,
      "date": "2016-09-13"
    },
    {
      "id": 230,
      "institutionName": "전라북도 익산시청",
      "streetAddress": "전라북도 익산시 익산대로62길 17(신동)",
      "lotAddress": "전라북도 익산시 신동 804-5 신동성당",
      "purpose": "방범용",
      "cameraNum": 1,
      "pixel": 200,
      "storageDay": 30,
      "installationDate": "2013년 12월",
      "managementNum": "063-859-5406",
      "latitude": 35.959415,
      "longitude": 126.960019,
      "date": "2016-09-13"
    },
    {
      "id": 231,
      "institutionName": "전라북도 익산시청",
      "streetAddress": "전라북도 익산시 선화로10길 42(모현동1가)",
      "lotAddress": "전라북도 익산시 모현동 1가 277-46 영신교회",
      "purpose": "방범용",
      "cameraNum": 1,
      "pixel": 200,
      "storageDay": 30,
      "installationDate": "2013년 12월",
      "managementNum": "063-859-5406",
      "latitude": 35.944687,
      "longitude": 126.944351,
      "date": "2016-09-13"
    },
    {
      "id": 232,
      "institutionName": "전라북도 익산시청",
      "streetAddress": "전라북도 익산시 무왕로9길 43-6(영등동)",
      "lotAddress": "전라북도 익산시 영등동 808-11 장수돌삼겹살",
      "purpose": "방범용",
      "cameraNum": 1,
      "pixel": 200,
      "storageDay": 30,
      "installationDate": "2013년 12월",
      "managementNum": "063-859-5406",
      "latitude": 35.962365,
      "longitude": 126.972483,
      "date": "2016-09-13"
    },
    {
      "id": 233,
      "institutionName": "전라북도 익산시청",
      "streetAddress": "전라북도 익산시 동서로55길 11(어양동)",
      "lotAddress": "전라북도 익산시 어양동 640-7 새사람교회",
      "purpose": "방범용",
      "cameraNum": 1,
      "pixel": 200,
      "storageDay": 30,
      "installationDate": "2013년 12월",
      "managementNum": "063-859-5406",
      "latitude": 35.956945,
      "longitude": 126.978961,
      "date": "2016-09-13"
    },
    {
      "id": 234,
      "institutionName": "전라북도 익산시청",
      "streetAddress": "",
      "lotAddress": "전라북도 익산시 신동 544-1 유마트",
      "purpose": "방범용",
      "cameraNum": 1,
      "pixel": 200,
      "storageDay": 30,
      "installationDate": "2013년 12월",
      "managementNum": "063-859-5406",
      "latitude": 35.960504,
      "longitude": 126.955044,
      "date": "2016-09-13"
    },
    {
      "id": 235,
      "institutionName": "전라북도 익산시청",
      "streetAddress": "전라북도 익산시 고봉로14길 10(영등동)",
      "lotAddress": "전라북도 익산시 영등동 547-78 우진건어물",
      "purpose": "방범용",
      "cameraNum": 1,
      "pixel": 200,
      "storageDay": 30,
      "installationDate": "2013년 12월",
      "managementNum": "063-859-5406",
      "latitude": 35.946665,
      "longitude": 126.967686,
      "date": "2016-09-13"
    },
    {
      "id": 236,
      "institutionName": "전라북도 익산시청",
      "streetAddress": "전라북도 익산시 서동로11길 28-4(마동, 혜성연립)",
      "lotAddress": "전라북도 익산시 마동 336-2 효성빌라",
      "purpose": "방범용",
      "cameraNum": 1,
      "pixel": 200,
      "storageDay": 30,
      "installationDate": "2013년 12월",
      "managementNum": "063-859-5406",
      "latitude": 35.935542,
      "longitude": 126.960168,
      "date": "2016-09-13"
    },
    {
      "id": 237,
      "institutionName": "전라북도 익산시청",
      "streetAddress": "전라북도 익산시 하나로 422-12(어양동)",
      "lotAddress": "전라북도 익산시 어양동 657-4 한우생고기 LG서비스 뒤",
      "purpose": "방범용",
      "cameraNum": 1,
      "pixel": 200,
      "storageDay": 30,
      "installationDate": "2013년 12월",
      "managementNum": "063-859-5406",
      "latitude": 35.948636,
      "longitude": 126.941442,
      "date": "2016-09-13"
    },
    {
      "id": 238,
      "institutionName": "전라북도 익산시청",
      "streetAddress": "전북 익산시 동서로9길 6",
      "lotAddress": "전라북도 익산시 신동 733-43 한일원룸",
      "purpose": "방범용",
      "cameraNum": 1,
      "pixel": 200,
      "storageDay": 30,
      "installationDate": "2013년 12월",
      "managementNum": "063-859-5406",
      "latitude": 35.958533,
      "longitude": 126.954482,
      "date": "2016-09-13"
    },
    {
      "id": 239,
      "institutionName": "전라북도 익산시청",
      "streetAddress": "",
      "lotAddress": "전라북도 익산시 주현동 252 한양아파트 옆 공영 주차장",
      "purpose": "방범용",
      "cameraNum": 2,
      "pixel": 200,
      "storageDay": 30,
      "installationDate": "2014년 3월",
      "managementNum": "063-859-5406",
      "latitude": 35.934028,
      "longitude": 126.959258,
      "date": "2016-09-13"
    },
    {
      "id": 240,
      "institutionName": "전라북도 익산시청",
      "streetAddress": "",
      "lotAddress": "전라북도 익산시 송학동 76-3 동영아파트 앞",
      "purpose": "방범용",
      "cameraNum": 2,
      "pixel": 200,
      "storageDay": 30,
      "installationDate": "2014년 3월",
      "managementNum": "063-859-5406",
      "latitude": 35.938958,
      "longitude": 126.94229,
      "date": "2016-09-13"
    },